[{"content":"Address: 1851 JUBILEE AVENUE; Location: MCVEETY PARK Type: OUTDOOR RINK BOARDED","lng":-104.60739543,"lat":50.4204928195,"address":"1851 JUBILEE AVENUE","location":"MCVEETY PARK","type":"OUTDOOR RINK BOARDED"},{"content":"Address: 126 SANGSTER BOULEVARD; Location: STAN OXELGREN PARK Type: OUTDOOR RINK BOARDED","lng":-104.633308052,"lat":50.4896579059,"address":"126 SANGSTER BOULEVARD","location":"STAN OXELGREN PARK","type":"OUTDOOR RINK BOARDED"},{"content":"Address: 2606 GRANT ROAD; Location: MIKE BADHAM PARK Type: OUTDOOR RINK BOARDED","lng":-104.611114306,"lat":50.4016459794,"address":"2606 GRANT ROAD","location":"MIKE BADHAM PARK","type":"OUTDOOR RINK BOARDED"},{"content":"Address: 165 WINDFIELD ROAD; Location: UNIVERSITY PARK Type: OUTDOOR RINK BOARDED","lng":-104.563248884,"lat":50.4314422035,"address":"165 WINDFIELD ROAD","location":"UNIVERSITY PARK","type":"OUTDOOR RINK BOARDED"},{"content":"Address: 5310 4TH AVENUE; Location: ROSEMONT SCHOOL PARK Type: OUTDOOR RINK BOARDED","lng":-104.656584149,"lat":50.4634386343,"address":"5310 4TH AVENUE","location":"ROSEMONT SCHOOL PARK","type":"OUTDOOR RINK BOARDED"},{"content":"Address: 1601 BOND STREET; Location: GLEN ELM PARK Type: OUTDOOR RINK BOARDED","lng":-104.566825538,"lat":50.4529964191,"address":"1601 BOND STREET","location":"GLEN ELM PARK","type":"OUTDOOR RINK BOARDED"},{"content":"Address: 93 LINCOLN DRIVE; Location: DR. A.E. PERRY SCHOOL Type: OUTDOOR RINK BOARDED","lng":-104.632805672,"lat":50.4019877651,"address":"93 LINCOLN DRIVE","location":"DR. A.E. PERRY SCHOOL","type":"OUTDOOR RINK BOARDED"},{"content":"Address: 901 GARNET STREET; Location: GRASSICK PLAYGROUND Type: OUTDOOR RINK BOARDED","lng":-104.626455478,"lat":50.4640531379,"address":"901 GARNET STREET","location":"GRASSICK PLAYGROUND","type":"OUTDOOR RINK BOARDED"},{"content":"Address: 8045 KESTRAL DRIVE; Location: WESTHILL/JOANNE GOULET Type: OUTDOOR RINK BOARDED","lng":-104.696765119,"lat":50.4778808348,"address":"8045 KESTRAL DRIVE","location":"WESTHILL/JOANNE GOULET","type":"OUTDOOR RINK BOARDED"},{"content":"Address: 3820 VICTORIA AVENUE; Location: LESLIE PARK Type: OUTDOOR RINK BOARDED","lng":-104.634710044,"lat":50.4478414622,"address":"3820 VICTORIA AVENUE","location":"LESLIE PARK","type":"OUTDOOR RINK BOARDED"},{"content":"Address: 2626 E DEWDNEY AVENUE; Location: GLENCAIRN PARK Type: OUTDOOR RINK BOARDED","lng":-104.541382455,"lat":50.4568764307,"address":"2626 E DEWDNEY AVENUE","location":"GLENCAIRN PARK","type":"OUTDOOR RINK BOARDED"},{"content":"Address: 305 ROSE STREET; Location: IMPERIAL PARK Type: OUTDOOR RINK BOARDED","lng":-104.606960993,"lat":50.4736187969,"address":"305 ROSE STREET","location":"IMPERIAL PARK","type":"OUTDOOR RINK BOARDED"},{"content":"Address: 2910 ATHOL STREET; Location: LAKEVIEW PARK Type: OUTDOOR RINK BOARDED","lng":-104.628712906,"lat":50.4322078439,"address":"2910 ATHOL STREET","location":"LAKEVIEW PARK","type":"OUTDOOR RINK BOARDED"},{"content":"Address: 6310 7TH AVENUE N; Location: RUTH BUCK PARK Type: OUTDOOR RINK BOARDED","lng":-104.672465188,"lat":50.4766028235,"address":"6310 7TH AVENUE N","location":"RUTH BUCK PARK","type":"OUTDOOR RINK BOARDED"},{"content":"Address: 100 RINK AVENUE; Location: LITZENBERGER PARK Type: OUTDOOR RINK BOARDED","lng":-104.650144108,"lat":50.4886929263,"address":"100 RINK AVENUE","location":"LITZENBERGER PARK","type":"OUTDOOR RINK BOARDED"},{"content":"Address: 3043 E ARENS ROAD; Location: READY PARK Type: OUTDOOR RINK BOARDED","lng":-104.540468897,"lat":50.4364036526,"address":"3043 E ARENS ROAD","location":"READY PARK","type":"OUTDOOR RINK BOARDED"},{"content":"Address: 250 N GARNET STREET; Location: MCMURCHY PARK Type: OUTDOOR RINK BOARDED","lng":-104.628758008,"lat":50.4802720051,"address":"250 N GARNET STREET","location":"MCMURCHY PARK","type":"OUTDOOR RINK BOARDED"},{"content":"Address: 945 REYNOLDS STREET; Location: BLOCK 11B PARK Type: OUTDOOR RINK BOARDED","lng":-104.588994428,"lat":50.4638355171,"address":"945 REYNOLDS STREET","location":"BLOCK 11B PARK","type":"OUTDOOR RINK BOARDED"},{"content":"Address: 2230 LINDSAY STREET; Location: GOCKI PARK Type: OUTDOOR RINK BOARDED","lng":-104.587548225,"lat":50.4434994351,"address":"2230 LINDSAY STREET","location":"GOCKI PARK","type":"OUTDOOR RINK BOARDED"},{"content":"Address: 20 WAKEFIELD CRESCENT; Location: SHERWOOD PARK Type: OUTDOOR RINK BOARDED","lng":-104.648767192,"lat":50.479438053,"address":"20 WAKEFIELD CRESCENT","location":"SHERWOOD PARK","type":"OUTDOOR RINK BOARDED"},{"content":"Address: 115 FAIRVIEW ROAD; Location: M.J. COLDWELL PARK Type: OUTDOOR RINK BOARDED","lng":-104.610733445,"lat":50.4902030201,"address":"115 FAIRVIEW ROAD","location":"M.J. COLDWELL PARK","type":"OUTDOOR RINK BOARDED"},{"content":"Address: 555 N MONTREAL STREET; Location: SPEED SKATING OVAL Type: OUTDOOR RINK OTHER","lng":-104.596899679,"lat":50.4856026103,"address":"555 N MONTREAL STREET","location":"SPEED SKATING OVAL","type":"OUTDOOR RINK OTHER"},{"content":"Address: 3355 ROBINSON ST; Location: ASSINIBOINE PARK Type: OUTDOOR RINK SHELTER","lng":-104.622675788,"lat":50.4250750779,"address":"3355 ROBINSON ST","location":"ASSINIBOINE PARK","type":"OUTDOOR RINK SHELTER"},{"content":"Address: 170 FUHRMANN CRES; Location: FUHRMANN PARK Type: OUTDOOR RINK SHELTER","lng":-104.657888577,"lat":50.4870050562,"address":"170 FUHRMANN CRES","location":"FUHRMANN PARK","type":"OUTDOOR RINK SHELTER"},{"content":"Address: 38 TURGEON CRES; Location: MARION MCVEETY SCHOOL Type: OUTDOOR RINK SHELTER","lng":-104.606995836,"lat":50.4208099389,"address":"38 TURGEON CRES","location":"MARION MCVEETY SCHOOL","type":"OUTDOOR RINK SHELTER"},{"content":"Address: 126 SANGSTER BLVD; Location: STAN OXELGREN PARK Type: OUTDOOR RINK SHELTER","lng":-104.633608277,"lat":50.4899590485,"address":"126 SANGSTER BLVD","location":"STAN OXELGREN PARK","type":"OUTDOOR RINK SHELTER"},{"content":"Address: 2501 GRANT RD; Location: MIKE BADHAM PARK Type: OUTDOOR RINK SHELTER","lng":-104.611412946,"lat":50.4017344803,"address":"2501 GRANT RD","location":"MIKE BADHAM PARK","type":"OUTDOOR RINK SHELTER"},{"content":"Address: 1910 E WAGMAN DR; Location: WILFRED WALKER SCHOOL Type: OUTDOOR RINK SHELTER","lng":-104.556047566,"lat":50.4404283999,"address":"1910 E WAGMAN DR","location":"WILFRED WALKER SCHOOL","type":"OUTDOOR RINK SHELTER"},{"content":"Address: 5382 2ND AVE N; Location: KEN JENKINS SCHOOL Type: OUTDOOR RINK SHELTER","lng":-104.657125949,"lat":50.4732784676,"address":"5382 2ND AVE N","location":"KEN JENKINS SCHOOL","type":"OUTDOOR RINK SHELTER"},{"content":"Address: 117 BROTHERTON AVE; Location: DR. GEORGE FERGUSON SCHOOL Type: OUTDOOR RINK SHELTER","lng":-104.555565797,"lat":50.4522043554,"address":"117 BROTHERTON AVE","location":"DR. GEORGE FERGUSON SCHOOL","type":"OUTDOOR RINK SHELTER"},{"content":"Address: 25 MICHENER DR; Location: UNIVERSITY PARK Type: OUTDOOR RINK SHELTER","lng":-104.562760404,"lat":50.4313008446,"address":"25 MICHENER DR","location":"UNIVERSITY PARK","type":"OUTDOOR RINK SHELTER"},{"content":"Address: 40 WEEKES CRES; Location: RUTH PAWSON SCHOOL Type: OUTDOOR RINK SHELTER","lng":-104.605140785,"lat":50.497010061,"address":"40 WEEKES CRES","location":"RUTH PAWSON SCHOOL","type":"OUTDOOR RINK SHELTER"},{"content":"Address: 125 TORONTO ST; Location: MCDERMID SCHOOL Type: OUTDOOR RINK SHELTER","lng":-104.597622453,"lat":50.4769057392,"address":"125 TORONTO ST","location":"MCDERMID SCHOOL","type":"OUTDOOR RINK SHELTER"},{"content":"Address: 6015 MIKKELSON DR; Location: ST. FRANCIS PARK Type: OUTDOOR RINK SHELTER","lng":-104.666903491,"lat":50.4653658639,"address":"6015 MIKKELSON DR","location":"ST. FRANCIS PARK","type":"OUTDOOR RINK SHELTER"},{"content":"Address: 145 DOROTHY ST; Location: DIEPPE SCHOOL Type: OUTDOOR RINK SHELTER","lng":-104.680872496,"lat":50.4593178352,"address":"145 DOROTHY ST","location":"DIEPPE SCHOOL","type":"OUTDOOR RINK SHELTER"},{"content":"Address: 750 N WINNIPEG ST; Location: MOUNT PLEASANT SPORT PARK Type: OUTDOOR RINK SHELTER","lng":-104.597285072,"lat":50.4861084023,"address":"750 N WINNIPEG ST","location":"MOUNT PLEASANT SPORT PARK","type":"OUTDOOR RINK SHELTER"},{"content":"Address: 1501 BOND ST; Location: GLEN ELM PARK Type: OUTDOOR RINK SHELTER","lng":-104.567155701,"lat":50.4533366372,"address":"1501 BOND ST","location":"GLEN ELM PARK","type":"OUTDOOR RINK SHELTER"},{"content":"Address: 4199 CASTLE RD; Location: ELSIE DORSEY PARK Type: OUTDOOR RINK SHELTER","lng":-104.59804403,"lat":50.4103402529,"address":"4199 CASTLE RD","location":"ELSIE DORSEY PARK","type":"OUTDOOR RINK SHELTER"},{"content":"Address: 1101 WALKER ST; Location: ROSEMONT PARK Type: OUTDOOR RINK SHELTER","lng":-104.661862724,"lat":50.4609663108,"address":"1101 WALKER ST","location":"ROSEMONT PARK","type":"OUTDOOR RINK SHELTER"},{"content":"Address: 901 GARNET ST; Location: GRASSICK PLAYGROUND Type: OUTDOOR RINK SHELTER","lng":-104.626056052,"lat":50.4643627956,"address":"901 GARNET ST","location":"GRASSICK PLAYGROUND","type":"OUTDOOR RINK SHELTER"},{"content":"Address: 8045 KESTRAL DR; Location: WESTHILL/JOANNE GOULET GOLF COURSE Type: OUTDOOR RINK SHELTER","lng":-104.696905078,"lat":50.4781663529,"address":"8045 KESTRAL DR","location":"WESTHILL/JOANNE GOULET GOLF COURSE","type":"OUTDOOR RINK SHELTER"},{"content":"Address: 4040 VICTORIA AVE; Location: LESLIE PARK Type: OUTDOOR RINK SHELTER","lng":-104.634251582,"lat":50.4475948195,"address":"4040 VICTORIA AVE","location":"LESLIE PARK","type":"OUTDOOR RINK SHELTER"},{"content":"Address: 3105 4TH AVE N; Location: CORONATION PARK SCHOOL Type: OUTDOOR RINK SHELTER","lng":-104.623977626,"lat":50.4755000148,"address":"3105 4TH AVE N","location":"CORONATION PARK SCHOOL","type":"OUTDOOR RINK SHELTER"},{"content":"Address: 225 MIKKELSON DR; Location: MABLE BROWN PARK Type: OUTDOOR RINK SHELTER","lng":-104.681934183,"lat":50.4665792514,"address":"225 MIKKELSON DR","location":"MABLE BROWN PARK","type":"OUTDOOR RINK SHELTER"},{"content":"Address: 2828 E DEWDNEY AVE; Location: JUDGE BRYANT SCHOOL Type: OUTDOOR RINK SHELTER","lng":-104.541177489,"lat":50.4566791261,"address":"2828 E DEWDNEY AVE","location":"JUDGE BRYANT SCHOOL","type":"OUTDOOR RINK SHELTER"},{"content":"Address: 305 ROSE STREET; Location: IMPERIAL PARK Type: OUTDOOR RINK SHELTER","lng":-104.607318248,"lat":50.4738041492,"address":"305 ROSE STREET","location":"IMPERIAL PARK","type":"OUTDOOR RINK SHELTER"},{"content":"Address: 40 COWIE RD; Location: DR. A.E. PERRY PARK Type: OUTDOOR RINK SHELTER","lng":-104.633108385,"lat":50.4021319393,"address":"40 COWIE RD","location":"DR. A.E. PERRY PARK","type":"OUTDOOR RINK SHELTER"},{"content":"Address: 2910 ATHOL ST; Location: LAKEVIEW PARK Type: OUTDOOR RINK SHELTER","lng":-104.628501307,"lat":50.4318753398,"address":"2910 ATHOL ST","location":"LAKEVIEW PARK","type":"OUTDOOR RINK SHELTER"},{"content":"Address: 201 FULTON DR; Location: MCLURG SCHOOL PARK Type: OUTDOOR RINK SHELTER","lng":-104.677381695,"lat":50.4726260953,"address":"201 FULTON DR","location":"MCLURG SCHOOL PARK","type":"OUTDOOR RINK SHELTER"},{"content":"Address: 2401 RETALLACK ST; Location: DAVIN SCHOOL Type: OUTDOOR RINK SHELTER","lng":-104.621502927,"lat":50.4396859748,"address":"2401 RETALLACK ST","location":"DAVIN SCHOOL","type":"OUTDOOR RINK SHELTER"},{"content":"Address: 4802 11TH AVE; Location: MCNAB PARK Type: OUTDOOR RINK SHELTER","lng":-104.647019247,"lat":50.4491663086,"address":"4802 11TH AVE","location":"MCNAB PARK","type":"OUTDOOR RINK SHELTER"},{"content":"Address: 6208 SHERWOOD DR; Location: RUTH BUCK PARK Type: OUTDOOR RINK SHELTER","lng":-104.672850729,"lat":50.4764149543,"address":"6208 SHERWOOD DR","location":"RUTH BUCK PARK","type":"OUTDOOR RINK SHELTER"},{"content":"Address: 100 RINK AVE; Location: LITZENBERGER PARK Type: OUTDOOR RINK SHELTER","lng":-104.649873536,"lat":50.4884957296,"address":"100 RINK AVE","location":"LITZENBERGER PARK","type":"OUTDOOR RINK SHELTER"},{"content":"Address: 2710 HELMSING ST; Location: W.F. READY SCHOOL Type: OUTDOOR RINK SHELTER","lng":-104.540054692,"lat":50.4366360287,"address":"2710 HELMSING ST","location":"W.F. READY SCHOOL","type":"OUTDOOR RINK SHELTER"},{"content":"Address: 250 N GARNET ST; Location: MCMURCHY PARK Type: OUTDOOR RINK SHELTER","lng":-104.628494509,"lat":50.4798273465,"address":"250 N GARNET ST","location":"MCMURCHY PARK","type":"OUTDOOR RINK SHELTER"},{"content":"Address: 1109 E 14TH AVE; Location: CRESCENT PARK Type: OUTDOOR RINK SHELTER","lng":-104.567320033,"lat":50.4413914516,"address":"1109 E 14TH AVE","location":"CRESCENT PARK","type":"OUTDOOR RINK SHELTER"},{"content":"Address: 945 REYNOLDS ST; Location: BLOCK 11B PARK Type: OUTDOOR RINK SHELTER","lng":-104.588895982,"lat":50.4634952144,"address":"945 REYNOLDS ST","location":"BLOCK 11B PARK","type":"OUTDOOR RINK SHELTER"},{"content":"Address: 2230 LINDSAY ST; Location: GOCKI PARK Type: OUTDOOR RINK SHELTER","lng":-104.587580892,"lat":50.4431249363,"address":"2230 LINDSAY ST","location":"GOCKI PARK","type":"OUTDOOR RINK SHELTER"},{"content":"Address: 20 WAKEFIELD CRES; Location: ELSIE MIRONUCK SCHOOL Type: OUTDOOR RINK SHELTER","lng":-104.64825344,"lat":50.4792336048,"address":"20 WAKEFIELD CRES","location":"ELSIE MIRONUCK SCHOOL","type":"OUTDOOR RINK SHELTER"},{"content":"Address: 1912 E 7TH AVE; Location: STEWART RUSSELL PARK Type: OUTDOOR RINK SHELTER","lng":-104.556337604,"lat":50.4589070346,"address":"1912 E 7TH AVE","location":"STEWART RUSSELL PARK","type":"OUTDOOR RINK SHELTER"},{"content":"Address: 2160 CAMERON STREET; Location: HOLY ROSARY SCHOOL Type: OUTDOOR RINK SHELTER","lng":-104.626856561,"lat":50.4445408583,"address":"2160 CAMERON STREET","location":"HOLY ROSARY SCHOOL","type":"OUTDOOR RINK SHELTER"},{"content":"Address: 115 FAIRVIEW RD; Location: M.J. COLDWELL PARK Type: OUTDOOR RINK SHELTER","lng":-104.610706557,"lat":50.4897918646,"address":"115 FAIRVIEW RD","location":"M.J. COLDWELL PARK","type":"OUTDOOR RINK SHELTER"},{"content":"Address: 1127 N ARNASON ST; Location: NORTHWEST LEISURE CENTRE Type: OUTDOOR RINK SHELTER","lng":-104.679457678,"lat":50.4960821597,"address":"1127 N ARNASON ST","location":"NORTHWEST LEISURE CENTRE","type":"OUTDOOR RINK SHELTER"},{"content":"Address: 1010 MCCARTHY BLVD; Location: A.E. WILSON PARK (WEST) Type: OUTDOOR RINK SHELTER","lng":-104.676042098,"lat":50.4603943224,"address":"1010 MCCARTHY BLVD","location":"A.E. WILSON PARK (WEST)","type":"OUTDOOR RINK SHELTER"},{"content":"Address: 3355 ROBINSON STREET; Location: ASSINIBOINE PARK Type: OUTDOOR RINK UNBOARDED","lng":-104.622204354,"lat":50.4250087778,"address":"3355 ROBINSON STREET","location":"ASSINIBOINE PARK","type":"OUTDOOR RINK UNBOARDED"},{"content":"Address: 170 FUHRMANN CRESCENT; Location: FUHRMANN PARK Type: OUTDOOR RINK UNBOARDED","lng":-104.657787039,"lat":50.4871068603,"address":"170 FUHRMANN CRESCENT","location":"FUHRMANN PARK","type":"OUTDOOR RINK UNBOARDED"},{"content":"Address: 1851 JUBILEE AVENUE; Location: MCVEETY PARK Type: OUTDOOR RINK UNBOARDED","lng":-104.606946824,"lat":50.4205225015,"address":"1851 JUBILEE AVENUE","location":"MCVEETY PARK","type":"OUTDOOR RINK UNBOARDED"},{"content":"Address: 30 WILLISTON DRIVE; Location: WILLISTON PARK Type: OUTDOOR RINK UNBOARDED","lng":-104.677655757,"lat":50.4812806422,"address":"30 WILLISTON DRIVE","location":"WILLISTON PARK","type":"OUTDOOR RINK UNBOARDED"},{"content":"Address: 126 SANGSTER BOULEVARD; Location: STAN OXELGREN PARK Type: OUTDOOR RINK UNBOARDED","lng":-104.633808691,"lat":50.4896494379,"address":"126 SANGSTER BOULEVARD","location":"STAN OXELGREN PARK","type":"OUTDOOR RINK UNBOARDED"},{"content":"Address: 2606 GRANT ROAD; Location: MIKE BADHAM PARK Type: OUTDOOR RINK UNBOARDED","lng":-104.610701095,"lat":50.4016430111,"address":"2606 GRANT ROAD","location":"MIKE BADHAM PARK","type":"OUTDOOR RINK UNBOARDED"},{"content":"Address: 1910 E WAGMAN DRIVE; Location: W. WALKER PARK Type: OUTDOOR RINK UNBOARDED","lng":-104.555841666,"lat":50.4402795356,"address":"1910 E WAGMAN DRIVE","location":"W. WALKER PARK","type":"OUTDOOR RINK UNBOARDED"},{"content":"Address: 5382 2ND AVENUE N; Location: KEN JENKINS PARK Type: OUTDOOR RINK UNBOARDED","lng":-104.657529233,"lat":50.4733881503,"address":"5382 2ND AVENUE N","location":"KEN JENKINS PARK","type":"OUTDOOR RINK UNBOARDED"},{"content":"Address: 129 BROTHERTON AVENUE; Location: DR. FERGUSON PARK Type: OUTDOOR RINK UNBOARDED","lng":-104.55561756,"lat":50.4520739188,"address":"129 BROTHERTON AVENUE","location":"DR. FERGUSON PARK","type":"OUTDOOR RINK UNBOARDED"},{"content":"Address: 20 HIND STREET; Location: HIND PARK Type: OUTDOOR RINK UNBOARDED","lng":-104.680761735,"lat":50.4858903159,"address":"20 HIND STREET","location":"HIND PARK","type":"OUTDOOR RINK UNBOARDED"},{"content":"Address: 165 WINDFIELD ROAD; Location: UNIVERSITY PARK Type: OUTDOOR RINK UNBOARDED","lng":-104.561793266,"lat":50.4314022173,"address":"165 WINDFIELD ROAD","location":"UNIVERSITY PARK","type":"OUTDOOR RINK UNBOARDED"},{"content":"Address: 139 TORONTO STREET; Location: MCDERMID SCHOOL Type: OUTDOOR RINK UNBOARDED","lng":-104.59754636,"lat":50.4767511142,"address":"139 TORONTO STREET","location":"MCDERMID SCHOOL","type":"OUTDOOR RINK UNBOARDED"},{"content":"Address: 5310 4TH AVENUE; Location: ROSEMONT SCHOOL PARK Type: OUTDOOR RINK UNBOARDED","lng":-104.656659071,"lat":50.4631150778,"address":"5310 4TH AVENUE","location":"ROSEMONT SCHOOL PARK","type":"OUTDOOR RINK UNBOARDED"},{"content":"Address: 6015 MIKKELSON DRIVE; Location: ST. FRANCIS PARK Type: OUTDOOR RINK UNBOARDED","lng":-104.667206424,"lat":50.4652250961,"address":"6015 MIKKELSON DRIVE","location":"ST. FRANCIS PARK","type":"OUTDOOR RINK UNBOARDED"},{"content":"Address: 145 DOROTHY STREET; Location: DIEPPE SCHOOL Type: OUTDOOR RINK UNBOARDED","lng":-104.681090188,"lat":50.4588025111,"address":"145 DOROTHY STREET","location":"DIEPPE SCHOOL","type":"OUTDOOR RINK UNBOARDED"},{"content":"Address: 1601 BOND STREET; Location: GLEN ELM PARK Type: OUTDOOR RINK UNBOARDED","lng":-104.567261736,"lat":50.4530085189,"address":"1601 BOND STREET","location":"GLEN ELM PARK","type":"OUTDOOR RINK UNBOARDED"},{"content":"Address: 93 LINCOLN DRIVE; Location: DR. A.E. PERRY SCHOOL Type: OUTDOOR RINK UNBOARDED","lng":-104.632506837,"lat":50.4021194663,"address":"93 LINCOLN DRIVE","location":"DR. A.E. PERRY SCHOOL","type":"OUTDOOR RINK UNBOARDED"},{"content":"Address: 4199 CASTLE ROAD; Location: ELSIE DORSEY PARK Type: OUTDOOR RINK UNBOARDED","lng":-104.598094149,"lat":50.4102343934,"address":"4199 CASTLE ROAD","location":"ELSIE DORSEY PARK","type":"OUTDOOR RINK UNBOARDED"},{"content":"Address: 2530 E ASSINIBOINE AVENUE; Location: W.S. HAWRYLAK SCHOOL Type: OUTDOOR RINK UNBOARDED","lng":-104.548409688,"lat":50.4224872205,"address":"2530 E ASSINIBOINE AVENUE","location":"W.S. HAWRYLAK SCHOOL","type":"OUTDOOR RINK UNBOARDED"},{"content":"Address: 901 GARNET STREET; Location: GRASSICK PLAYGROUND Type: OUTDOOR RINK UNBOARDED","lng":-104.626028243,"lat":50.4640838668,"address":"901 GARNET STREET","location":"GRASSICK PLAYGROUND","type":"OUTDOOR RINK UNBOARDED"},{"content":"Address: 8045 KESTRAL DRIVE; Location: WESTHILL/JOANNE GOULET Type: OUTDOOR RINK UNBOARDED","lng":-104.696739103,"lat":50.4781466566,"address":"8045 KESTRAL DRIVE","location":"WESTHILL/JOANNE GOULET","type":"OUTDOOR RINK UNBOARDED"},{"content":"Address: 3820 VICTORIA AVENUE; Location: LESLIE PARK Type: OUTDOOR RINK UNBOARDED","lng":-104.634386246,"lat":50.4475286534,"address":"3820 VICTORIA AVENUE","location":"LESLIE PARK","type":"OUTDOOR RINK UNBOARDED"},{"content":"Address: 343 N PICKARD STREET; Location: AL PICKARD PARK Type: OUTDOOR RINK UNBOARDED","lng":-104.657163069,"lat":50.4826701783,"address":"343 N PICKARD STREET","location":"AL PICKARD PARK","type":"OUTDOOR RINK UNBOARDED"},{"content":"Address: 3105 4TH AVENUE N; Location: CORONATION PARK SCHOOL Type: OUTDOOR RINK UNBOARDED","lng":-104.624128175,"lat":50.4753235136,"address":"3105 4TH AVENUE N","location":"CORONATION PARK SCHOOL","type":"OUTDOOR RINK UNBOARDED"},{"content":"Address: 255 MIKKELSON DRIVE; Location: MABLE BROWN PARK Type: OUTDOOR RINK UNBOARDED","lng":-104.682086997,"lat":50.4666364817,"address":"255 MIKKELSON DRIVE","location":"MABLE BROWN PARK","type":"OUTDOOR RINK UNBOARDED"},{"content":"Address: 2626 E DEWDNEY AVENUE; Location: GLENCAIRN PARK Type: OUTDOOR RINK UNBOARDED","lng":-104.542229376,"lat":50.4568223547,"address":"2626 E DEWDNEY AVENUE","location":"GLENCAIRN PARK","type":"OUTDOOR RINK UNBOARDED"},{"content":"Address: 2910 ATHOL STREET; Location: LAKEVIEW PARK Type: OUTDOOR RINK UNBOARDED","lng":-104.629139142,"lat":50.4321872048,"address":"2910 ATHOL STREET","location":"LAKEVIEW PARK","type":"OUTDOOR RINK UNBOARDED"},{"content":"Address: 201 FULTON DRIVE; Location: MCLURG SCHOOL PARK Type: OUTDOOR RINK UNBOARDED","lng":-104.677516331,"lat":50.4727851358,"address":"201 FULTON DRIVE","location":"MCLURG SCHOOL PARK","type":"OUTDOOR RINK UNBOARDED"},{"content":"Address: 4410 QUEEN STREET; Location: QUEEN ST. PARK Type: OUTDOOR RINK UNBOARDED","lng":-104.638125966,"lat":50.409388365,"address":"4410 QUEEN STREET","location":"QUEEN ST. PARK","type":"OUTDOOR RINK UNBOARDED"},{"content":"Address: 4802 11TH AVENUE; Location: MCNAB PARK Type: OUTDOOR RINK UNBOARDED","lng":-104.647058085,"lat":50.4494765885,"address":"4802 11TH AVENUE","location":"MCNAB PARK","type":"OUTDOOR RINK UNBOARDED"},{"content":"Address: 6310 7TH AVENUE N; Location: RUTH BUCK PARK Type: OUTDOOR RINK UNBOARDED","lng":-104.672450105,"lat":50.4763674684,"address":"6310 7TH AVENUE N","location":"RUTH BUCK PARK","type":"OUTDOOR RINK UNBOARDED"},{"content":"Address: 100 RINK AVENUE; Location: LITZENBERGER PARK Type: OUTDOOR RINK UNBOARDED","lng":-104.649678345,"lat":50.4887416942,"address":"100 RINK AVENUE","location":"LITZENBERGER PARK","type":"OUTDOOR RINK UNBOARDED"},{"content":"Address: 3043 E ARENS ROAD; Location: READY PARK Type: OUTDOOR RINK UNBOARDED","lng":-104.540886219,"lat":50.4367023185,"address":"3043 E ARENS ROAD","location":"READY PARK","type":"OUTDOOR RINK UNBOARDED"},{"content":"Address: 250 N GARNET STREET; Location: MCMURCHY PARK Type: OUTDOOR RINK UNBOARDED","lng":-104.628219071,"lat":50.4802841093,"address":"250 N GARNET STREET","location":"MCMURCHY PARK","type":"OUTDOOR RINK UNBOARDED"},{"content":"Address: 1109 E 14TH AVE; Location: CRESCENT PARK Type: OUTDOOR RINK UNBOARDED","lng":-104.56763106,"lat":50.4416181862,"address":"1109 E 14TH AVE","location":"CRESCENT PARK","type":"OUTDOOR RINK UNBOARDED"},{"content":"Address: 945 REYNOLDS STREET; Location: BLOCK 11B PARK Type: OUTDOOR RINK UNBOARDED","lng":-104.588985442,"lat":50.4633195426,"address":"945 REYNOLDS STREET","location":"BLOCK 11B PARK","type":"OUTDOOR RINK UNBOARDED"},{"content":"Address: 20 WAKEFIELD CRESCENT; Location: SHERWOOD PARK Type: OUTDOOR RINK UNBOARDED","lng":-104.648435773,"lat":50.4793151517,"address":"20 WAKEFIELD CRESCENT","location":"SHERWOOD PARK","type":"OUTDOOR RINK UNBOARDED"},{"content":"Address: 1912 E 7TH AVENUE; Location: STEWART RUSSELL PARK Type: OUTDOOR RINK UNBOARDED","lng":-104.556088585,"lat":50.4590290965,"address":"1912 E 7TH AVENUE","location":"STEWART RUSSELL PARK","type":"OUTDOOR RINK UNBOARDED"},{"content":"Address: 115 FAIRVIEW ROAD; Location: M.J. COLDWELL PARK Type: OUTDOOR RINK UNBOARDED","lng":-104.610748693,"lat":50.49058532,"address":"115 FAIRVIEW ROAD","location":"M.J. COLDWELL PARK","type":"OUTDOOR RINK UNBOARDED"},{"content":"Address: 5451 ROCHDALE BOULEVARD; Location: LAKERIDGE SPORTS PARK Type: OUTDOOR SKATEBOARD PARK","lng":-104.659056912,"lat":50.4953850738,"address":"5451 ROCHDALE BOULEVARD","location":"LAKERIDGE SPORTS PARK","type":"OUTDOOR SKATEBOARD PARK"},{"content":"Address: 2901 POWERHOUSE DRIVE; Location: REGINA SKATEPLAZA Type: OUTDOOR SKATEBOARD PARK","lng":-104.593782699,"lat":50.4334369569,"address":"2901 POWERHOUSE DRIVE","location":"REGINA SKATEPLAZA","type":"OUTDOOR SKATEBOARD PARK"}]
