<?xml version="1.0" encoding="UTF-8"?>
<dataroot xmlns:od="urn:schemas-microsoft-com:officedata" xmlns:xsi="http://www.w3.org/2001/XMLSchema-instance"  xsi:noNamespaceSchemaLocation="POI.xsd" generated="2011-11-28T16:32:08">
<POI>
<OBJECTID>1</OBJECTID>
<ADDRESS>200 BROAD STREET</ADDRESS>
<NAME>IMPERIAL SCHOOL - BASKETBALL</NAME>
<LOCATION>IMPERIAL SCHOOL</LOCATION>
<TYPE>BASKETBALL</TYPE>
<LONGITUDE>-104.607673141</LONGITUDE>
<LATITUDE>50.4754357131</LATITUDE>
</POI>
<POI>
<OBJECTID>2</OBJECTID>
<ADDRESS>200 BROAD STREET</ADDRESS>
<NAME>IMPERIAL SCHOOL - BALL DIAMOND BS #249</NAME>
<LOCATION>IMPERIAL SCHOOL</LOCATION>
<TYPE>BALL DIAMOND</TYPE>
<LONGITUDE>-104.608916031</LONGITUDE>
<LATITUDE>50.4748920691</LATITUDE>
</POI>
<POI>
<OBJECTID>3</OBJECTID>
<ADDRESS>200 BROAD ST</ADDRESS>
<NAME>IMPERIAL SCHOOL - PLAYGROUND 200 BROAD ST</NAME>
<LOCATION>IMPERIAL SCHOOL</LOCATION>
<TYPE>PLAYGROUND</TYPE>
<LONGITUDE>-104.606902526</LONGITUDE>
<LATITUDE>50.4748204266</LATITUDE>
</POI>
<POI>
<OBJECTID>4</OBJECTID>
<ADDRESS>200 BROAD STREET</ADDRESS>
<NAME>IMPERIAL SCHOOL - ATHLETIC FIELD SOCCER ATHLETIC FIELD</NAME>
<LOCATION>IMPERIAL SCHOOL</LOCATION>
<TYPE>ATHLETIC FIELD</TYPE>
<LONGITUDE>-104.608532585</LONGITUDE>
<LATITUDE>50.4751718406</LATITUDE>
</POI>
<POI>
<OBJECTID>5</OBJECTID>
<ADDRESS>200 Broad St.</ADDRESS>
<NAME>Imperial - Public Elementary School</NAME>
<LOCATION>Imperial - Public Elementary School</LOCATION>
<TYPE>Public Elementary School</TYPE>
<LONGITUDE>-104.60793896</LONGITUDE>
<LATITUDE>50.47548874</LATITUDE>
</POI>
<POI>
<OBJECTID>6</OBJECTID>
<ADDRESS>50 DALGLIESH DR</ADDRESS>
<NAME>DALGLIESH PARK - PLAYGROUND 50 DALGLIESH DR</NAME>
<LOCATION>DALGLIESH PARK</LOCATION>
<TYPE>PLAYGROUND</TYPE>
<LONGITUDE>-104.648951627</LONGITUDE>
<LATITUDE>50.4864311192</LATITUDE>
</POI>
<POI>
<OBJECTID>7</OBJECTID>
<ADDRESS>50 DALGLIESH DRIVE</ADDRESS>
<NAME>DALGLIESH - ATHLETIC FIELD SOCCER ATHLETIC FIELD</NAME>
<LOCATION>DALGLIESH</LOCATION>
<TYPE>ATHLETIC FIELD</TYPE>
<LONGITUDE>-104.649835017</LONGITUDE>
<LATITUDE>50.4861630393</LATITUDE>
</POI>
<POI>
<OBJECTID>8</OBJECTID>
<ADDRESS>2705 E HOWELL DR</ADDRESS>
<NAME>HOWELL PARK - PLAYGROUND 2705 E HOWELL DR</NAME>
<LOCATION>HOWELL PARK</LOCATION>
<TYPE>PLAYGROUND</TYPE>
<LONGITUDE>-104.544200368</LONGITUDE>
<LATITUDE>50.4611468418</LATITUDE>
</POI>
<POI>
<OBJECTID>9</OBJECTID>
<ADDRESS>2705 E HOWELL DRIVE</ADDRESS>
<NAME>HOWELL MULTI - ATHLETIC FIELD MULTI-USE ATHLETIC FIELD</NAME>
<LOCATION>HOWELL MULTI</LOCATION>
<TYPE>ATHLETIC FIELD</TYPE>
<LONGITUDE>-104.543004181</LONGITUDE>
<LATITUDE>50.4617233472</LATITUDE>
</POI>
<POI>
<OBJECTID>10</OBJECTID>
<ADDRESS>2705 E HOWELL DRIVE</ADDRESS>
<NAME>HOWELL PARK - BALL DIAMOND BS #102</NAME>
<LOCATION>HOWELL PARK</LOCATION>
<TYPE>BALL DIAMOND</TYPE>
<LONGITUDE>-104.544819276</LONGITUDE>
<LATITUDE>50.4619401141</LATITUDE>
</POI>
<POI>
<OBJECTID>11</OBJECTID>
<ADDRESS>111 E BROADWAY AVENUE</ADDRESS>
<NAME>QUEEN ELIZABETH JUBILEE PARK - BASKETBALL</NAME>
<LOCATION>QUEEN ELIZABETH JUBILEE PARK</LOCATION>
<TYPE>BASKETBALL</TYPE>
<LONGITUDE>-104.580060206</LONGITUDE>
<LATITUDE>50.4372312026</LATITUDE>
</POI>
<POI>
<OBJECTID>12</OBJECTID>
<ADDRESS>111 E BROADWAY AVENUE</ADDRESS>
<NAME>QUEEN ELIZABETH JUBILEE PARK - BALL DIAMOND BS #98</NAME>
<LOCATION>QUEEN ELIZABETH JUBILEE PARK</LOCATION>
<TYPE>BALL DIAMOND</TYPE>
<LONGITUDE>-104.579914413</LONGITUDE>
<LATITUDE>50.4369012436</LATITUDE>
</POI>
<POI>
<OBJECTID>13</OBJECTID>
<ADDRESS>402 HALIFAX ST</ADDRESS>
<NAME>HALIFAX/2ND AVE. NORTH PARK - PLAYGROUND 402 HALIFAX ST</NAME>
<LOCATION>HALIFAX/2ND AVE. NORTH PARK</LOCATION>
<TYPE>PLAYGROUND</TYPE>
<LONGITUDE>-104.603885389</LONGITUDE>
<LATITUDE>50.4721800027</LATITUDE>
</POI>
<POI>
<OBJECTID>14</OBJECTID>
<ADDRESS>120 CAREY ST</ADDRESS>
<NAME>CAREY PARK - PLAYGROUND 120 CAREY ST</NAME>
<LOCATION>CAREY PARK</LOCATION>
<TYPE>PLAYGROUND</TYPE>
<LONGITUDE>-104.639137827</LONGITUDE>
<LATITUDE>50.4763300334</LATITUDE>
</POI>
<POI>
<OBJECTID>15</OBJECTID>
<ADDRESS>6823 GILLMORE DRIVE</ADDRESS>
<NAME>MAPLE RIDGE PARK/ST. ANGELA - BALL DIAMOND BS #216</NAME>
<LOCATION>MAPLE RIDGE PARK/ST. ANGELA</LOCATION>
<TYPE>BALL DIAMOND</TYPE>
<LONGITUDE>-104.679322972</LONGITUDE>
<LATITUDE>50.5001105952</LATITUDE>
</POI>
<POI>
<OBJECTID>16</OBJECTID>
<ADDRESS>6823 GILLMORE DRIVE</ADDRESS>
<NAME>ST. ANGELA MERICI - PLAYGROUND 6823 GILLMORE DRIVE</NAME>
<LOCATION>ST. ANGELA MERICI</LOCATION>
<TYPE>PLAYGROUND</TYPE>
<LONGITUDE>-104.679739492</LONGITUDE>
<LATITUDE>50.5009772932</LATITUDE>
</POI>
<POI>
<OBJECTID>17</OBJECTID>
<ADDRESS>496 SANGSTER BOULEVARD</ADDRESS>
<NAME>SANGSTER PARK - ATHLETIC FIELD SOCCER ATHLETIC FIELD</NAME>
<LOCATION>SANGSTER PARK</LOCATION>
<TYPE>ATHLETIC FIELD</TYPE>
<LONGITUDE>-104.626470176</LONGITUDE>
<LATITUDE>50.4898060172</LATITUDE>
</POI>
<POI>
<OBJECTID>18</OBJECTID>
<ADDRESS>496 SANGSTER BOULEVARD</ADDRESS>
<NAME>SANGSTER PARK/DR. HANNA SCHOOL - BALL DIAMOND BS #246</NAME>
<LOCATION>SANGSTER PARK/DR. HANNA SCHOOL</LOCATION>
<TYPE>BALL DIAMOND</TYPE>
<LONGITUDE>-104.628102304</LONGITUDE>
<LATITUDE>50.4893381831</LATITUDE>
</POI>
<POI>
<OBJECTID>19</OBJECTID>
<ADDRESS>180 WELLS STREET</ADDRESS>
<NAME>GEORGE LEE SCHOOL - ATHLETIC FIELD SOCCER ATHLETIC FIELD</NAME>
<LOCATION>GEORGE LEE SCHOOL</LOCATION>
<TYPE>ATHLETIC FIELD</TYPE>
<LONGITUDE>-104.648656047</LONGITUDE>
<LATITUDE>50.4886204874</LATITUDE>
</POI>
<POI>
<OBJECTID>20</OBJECTID>
<ADDRESS>180 WELLS STREET</ADDRESS>
<NAME>GEORGE LEE SCHOOL - BALL DIAMOND BS #199</NAME>
<LOCATION>GEORGE LEE SCHOOL</LOCATION>
<TYPE>BALL DIAMOND</TYPE>
<LONGITUDE>-104.648825534</LONGITUDE>
<LATITUDE>50.4890467897</LATITUDE>
</POI>
<POI>
<OBJECTID>21</OBJECTID>
<ADDRESS>180 WELLS STREET</ADDRESS>
<NAME>GEORGE LEE SCHOOL - BASKETBALL</NAME>
<LOCATION>GEORGE LEE SCHOOL</LOCATION>
<TYPE>BASKETBALL</TYPE>
<LONGITUDE>-104.647582245</LONGITUDE>
<LATITUDE>50.4889817555</LATITUDE>
</POI>
<POI>
<OBJECTID>22</OBJECTID>
<ADDRESS>180 WELLS ST</ADDRESS>
<NAME>GEORGE LEE SCHOOL - PLAYGROUND 180 WELLS ST</NAME>
<LOCATION>GEORGE LEE SCHOOL</LOCATION>
<TYPE>PLAYGROUND</TYPE>
<LONGITUDE>-104.647339706</LONGITUDE>
<LATITUDE>50.4883197777</LATITUDE>
</POI>
<POI>
<OBJECTID>23</OBJECTID>
<ADDRESS>180 Wells St.</ADDRESS>
<NAME>George Lee - Public Elementary School</NAME>
<LOCATION>George Lee - Public Elementary School</LOCATION>
<TYPE>Public Elementary School</TYPE>
<LONGITUDE>-104.647798472</LONGITUDE>
<LATITUDE>50.4887231519</LATITUDE>
</POI>
<POI>
<OBJECTID>24</OBJECTID>
<ADDRESS>6918 MAPLE BROOK CRESCENT</ADDRESS>
<NAME>MAPLE RIDGE PARK - A - SPRAYPAD 6918 MAPLE BROOK CRES</NAME>
<LOCATION>MAPLE RIDGE PARK - A</LOCATION>
<TYPE>SPRAYPAD</TYPE>
<LONGITUDE>-104.678870496</LONGITUDE>
<LATITUDE>50.503034444</LATITUDE>
</POI>
<POI>
<OBJECTID>25</OBJECTID>
<ADDRESS>3100 KINGS ROAD</ADDRESS>
<NAME>LAKEVIEW PAR 3 GOLF COURSE - OUTDOOR TENNIS</NAME>
<LOCATION>LAKEVIEW PAR 3 GOLF COURSE</LOCATION>
<TYPE>OUTDOOR TENNIS</TYPE>
<LONGITUDE>-104.638423658</LONGITUDE>
<LATITUDE>50.429876635</LATITUDE>
</POI>
<POI>
<OBJECTID>26</OBJECTID>
<ADDRESS>129 BROTHERTON AVE</ADDRESS>
<NAME>DR. GEORGE FERGUSON PARK W - PLAYGROUND 129 BROTHERTON AVE</NAME>
<LOCATION>DR. GEORGE FERGUSON PARK W</LOCATION>
<TYPE>PLAYGROUND</TYPE>
<LONGITUDE>-104.556839106</LONGITUDE>
<LATITUDE>50.4513873315</LATITUDE>
</POI>
<POI>
<OBJECTID>27</OBJECTID>
<ADDRESS>129 BROTHERTON AVE</ADDRESS>
<NAME>DR. GEORGE FERGUSON PARK E - PLAYGROUND 129 BROTHERTON AVE</NAME>
<LOCATION>DR. GEORGE FERGUSON PARK E</LOCATION>
<TYPE>PLAYGROUND</TYPE>
<LONGITUDE>-104.556069136</LONGITUDE>
<LATITUDE>50.4513961404</LATITUDE>
</POI>
<POI>
<OBJECTID>28</OBJECTID>
<ADDRESS>129 BROTHERTON AVE</ADDRESS>
<NAME>DR. GEORGE FERGUSON PARK - BASKETBALL</NAME>
<LOCATION>DR. GEORGE FERGUSON PARK</LOCATION>
<TYPE>BASKETBALL</TYPE>
<LONGITUDE>-104.556083883</LONGITUDE>
<LATITUDE>50.4519236379</LATITUDE>
</POI>
<POI>
<OBJECTID>29</OBJECTID>
<ADDRESS>117 Brotherton Ave.</ADDRESS>
<NAME>Dr. George Ferguson - Public Elementary School</NAME>
<LOCATION>Dr. George Ferguson - Public Elementary School</LOCATION>
<TYPE>Public Elementary School</TYPE>
<LONGITUDE>-104.556444028</LONGITUDE>
<LATITUDE>50.4513468595</LATITUDE>
</POI>
<POI>
<OBJECTID>30</OBJECTID>
<ADDRESS>615 6TH AVE</ADDRESS>
<NAME>EASTVIEW NEIGHBOURHOOD CENTRE - REC_NBHD FACILITY</NAME>
<LOCATION>EASTVIEW NEIGHBOURHOOD CENTRE</LOCATION>
<TYPE>REC_NBHD FACILITY</TYPE>
<LONGITUDE>-104.589434966</LONGITUDE>
<LATITUDE>50.4596046801</LATITUDE>
</POI>
<POI>
<OBJECTID>31</OBJECTID>
<ADDRESS>3355 ROBINSON ST</ADDRESS>
<NAME>ASSINIBOINE PARK - PLAYGROUND 3355 ROBINSON ST</NAME>
<LOCATION>ASSINIBOINE PARK</LOCATION>
<TYPE>PLAYGROUND</TYPE>
<LONGITUDE>-104.622939589</LONGITUDE>
<LATITUDE>50.4249134738</LATITUDE>
</POI>
<POI>
<OBJECTID>32</OBJECTID>
<ADDRESS>3355 ROBINSON ST</ADDRESS>
<NAME>ASSINIBOINE PARK - OUTDOOR RINK SHELTER</NAME>
<LOCATION>ASSINIBOINE PARK</LOCATION>
<TYPE>OUTDOOR RINK SHELTER</TYPE>
<LONGITUDE>-104.622675788</LONGITUDE>
<LATITUDE>50.4250750779</LATITUDE>
</POI>
<POI>
<OBJECTID>33</OBJECTID>
<ADDRESS>3355 ROBINSON STREET</ADDRESS>
<NAME>ASSINIBOINE PARK - OUTDOOR RINK UNBOARDED</NAME>
<LOCATION>ASSINIBOINE PARK</LOCATION>
<TYPE>OUTDOOR RINK UNBOARDED</TYPE>
<LONGITUDE>-104.622204354</LONGITUDE>
<LATITUDE>50.4250087778</LATITUDE>
</POI>
<POI>
<OBJECTID>34</OBJECTID>
<ADDRESS>156 SHANNON ROAD</ADDRESS>
<NAME>RICHARDSON PARK - ATHLETIC FIELD SOCCER ATHLETIC FIELD</NAME>
<LOCATION>RICHARDSON PARK</LOCATION>
<TYPE>ATHLETIC FIELD</TYPE>
<LONGITUDE>-104.614866871</LONGITUDE>
<LATITUDE>50.3983872771</LATITUDE>
</POI>
<POI>
<OBJECTID>35</OBJECTID>
<ADDRESS>2715 HELMSING STREET</ADDRESS>
<NAME>SCHWEITZER PARK - BASKETBALL</NAME>
<LOCATION>SCHWEITZER PARK</LOCATION>
<TYPE>BASKETBALL</TYPE>
<LONGITUDE>-104.538173589</LONGITUDE>
<LATITUDE>50.4360759231</LATITUDE>
</POI>
<POI>
<OBJECTID>36</OBJECTID>
<ADDRESS>2715 HELMSING ST</ADDRESS>
<NAME>SCHWEITZER PARK - PLAYGROUND 2715 HELMSING ST</NAME>
<LOCATION>SCHWEITZER PARK</LOCATION>
<TYPE>PLAYGROUND</TYPE>
<LONGITUDE>-104.538017724</LONGITUDE>
<LATITUDE>50.4359547401</LATITUDE>
</POI>
<POI>
<OBJECTID>37</OBJECTID>
<ADDRESS>2755 ELPHINSTONE ST</ADDRESS>
<NAME>KIWANIS PARK - PLAYGROUND 2755 ELPHINSTONE ST</NAME>
<LOCATION>KIWANIS PARK</LOCATION>
<TYPE>PLAYGROUND</TYPE>
<LONGITUDE>-104.629589369</LONGITUDE>
<LATITUDE>50.436205637</LATITUDE>
</POI>
<POI>
<OBJECTID>38</OBJECTID>
<ADDRESS>2755 ELPHINSTONE STREET</ADDRESS>
<NAME>KIWANIS WATERFALL PARK NW - BALL DIAMOND BS #50</NAME>
<LOCATION>KIWANIS WATERFALL PARK NW</LOCATION>
<TYPE>BALL DIAMOND</TYPE>
<LONGITUDE>-104.630237249</LONGITUDE>
<LATITUDE>50.4384784145</LATITUDE>
</POI>
<POI>
<OBJECTID>39</OBJECTID>
<ADDRESS>2755 ELPHINSTONE ST</ADDRESS>
<NAME>KIWANIS WATERFALL PARK - SEASONAL WASHROOM</NAME>
<LOCATION>KIWANIS WATERFALL PARK</LOCATION>
<TYPE>SEASONAL WASHROOM</TYPE>
<LONGITUDE>-104.629155824</LONGITUDE>
<LATITUDE>50.4367021477</LATITUDE>
</POI>
<POI>
<OBJECTID>40</OBJECTID>
<ADDRESS>2755 ELPHINSTONE STREET</ADDRESS>
<NAME>KIWANIS WATERFALL PARK SE - BALL DIAMOND BS #48</NAME>
<LOCATION>KIWANIS WATERFALL PARK SE</LOCATION>
<TYPE>BALL DIAMOND</TYPE>
<LONGITUDE>-104.629069718</LONGITUDE>
<LATITUDE>50.437314216</LATITUDE>
</POI>
<POI>
<OBJECTID>41</OBJECTID>
<ADDRESS>2755 ELPHINSTONE STREET</ADDRESS>
<NAME>KIWANIS WATERFALL PARK NE - BALL DIAMOND BS #49</NAME>
<LOCATION>KIWANIS WATERFALL PARK NE</LOCATION>
<TYPE>BALL DIAMOND</TYPE>
<LONGITUDE>-104.6294556</LONGITUDE>
<LATITUDE>50.4381593382</LATITUDE>
</POI>
<POI>
<OBJECTID>42</OBJECTID>
<ADDRESS>2755 ELPHINSTONE STREET</ADDRESS>
<NAME>KIWANIS WATERFALL PARK - PARK WATER FEATURE</NAME>
<LOCATION>KIWANIS WATERFALL PARK</LOCATION>
<TYPE>PARK WATER FEATURE</TYPE>
<LONGITUDE>-104.628802869</LONGITUDE>
<LATITUDE>50.4354576433</LATITUDE>
</POI>
<POI>
<OBJECTID>43</OBJECTID>
<ADDRESS>1912 E 7TH AVE</ADDRESS>
<NAME>STEWART RUSSELL PARK - BASKETBALL</NAME>
<LOCATION>STEWART RUSSELL PARK</LOCATION>
<TYPE>BASKETBALL</TYPE>
<LONGITUDE>-104.555758553</LONGITUDE>
<LATITUDE>50.4592756665</LATITUDE>
</POI>
<POI>
<OBJECTID>44</OBJECTID>
<ADDRESS>1920 E 7TH AVENUE</ADDRESS>
<NAME>STEWART RUSSELL SCHOOL SOUTH - BALL DIAMOND BS #111</NAME>
<LOCATION>STEWART RUSSELL SCHOOL SOUTH</LOCATION>
<TYPE>BALL DIAMOND</TYPE>
<LONGITUDE>-104.555096548</LONGITUDE>
<LATITUDE>50.4590702358</LATITUDE>
</POI>
<POI>
<OBJECTID>45</OBJECTID>
<ADDRESS>1920 E 7TH AVE</ADDRESS>
<NAME>STEWART RUSSELL SCHOOL - PLAYGROUND 1920 E 7TH AVE</NAME>
<LOCATION>STEWART RUSSELL SCHOOL</LOCATION>
<TYPE>PLAYGROUND</TYPE>
<LONGITUDE>-104.55448654</LONGITUDE>
<LATITUDE>50.4588846944</LATITUDE>
</POI>
<POI>
<OBJECTID>46</OBJECTID>
<ADDRESS>6102 BRUNSKILL PL</ADDRESS>
<NAME>A.E. WILSON PARK (EAST) - MOUNT ROYAL - PLAYGROUND 6102 BRUNSKILL PL</NAME>
<LOCATION>A.E. WILSON PARK (EAST) - MOUNT ROYAL</LOCATION>
<TYPE>PLAYGROUND</TYPE>
<LONGITUDE>-104.667933961</LONGITUDE>
<LATITUDE>50.4592375478</LATITUDE>
</POI>
<POI>
<OBJECTID>47</OBJECTID>
<ADDRESS>210 MCINTOSH ST</ADDRESS>
<NAME>KEN JENKINS SOCCER - ATHLETIC FIELD SOCCER ATHLETIC FIELD</NAME>
<LOCATION>KEN JENKINS SOCCER</LOCATION>
<TYPE>ATHLETIC FIELD</TYPE>
<LONGITUDE>-104.656342175</LONGITUDE>
<LATITUDE>50.474312747</LATITUDE>
</POI>
<POI>
<OBJECTID>48</OBJECTID>
<ADDRESS>210 MCINTOSH STREET</ADDRESS>
<NAME>KEN JENKINS MULTI - ATHLETIC FIELD MULTI-USE ATHLETIC FIELD</NAME>
<LOCATION>KEN JENKINS MULTI</LOCATION>
<TYPE>ATHLETIC FIELD</TYPE>
<LONGITUDE>-104.655748197</LONGITUDE>
<LATITUDE>50.4743807407</LATITUDE>
</POI>
<POI>
<OBJECTID>49</OBJECTID>
<ADDRESS>210 MCINTOSH STREET</ADDRESS>
<NAME>KEN JENKINS SCHOOL - BALL DIAMOND BS #197</NAME>
<LOCATION>KEN JENKINS SCHOOL</LOCATION>
<TYPE>BALL DIAMOND</TYPE>
<LONGITUDE>-104.657714045</LONGITUDE>
<LATITUDE>50.4740708374</LATITUDE>
</POI>
<POI>
<OBJECTID>50</OBJECTID>
<ADDRESS>2015 9TH AVE N</ADDRESS>
<NAME>NORTH EAST PARK NWW - BALL DIAMOND BS #280 (AKA=REGINA MINOR GIRLS BALL)</NAME>
<LOCATION>NORTH EAST PARK NWW</LOCATION>
<TYPE>BALL DIAMOND</TYPE>
<LONGITUDE>-104.610522375</LONGITUDE>
<LATITUDE>50.484058235</LATITUDE>
</POI>
<POI>
<OBJECTID>51</OBJECTID>
<ADDRESS>727 N MCINTOSH ST</ADDRESS>
<NAME>ST. BERNADETTE SCHOOL - PLAYGROUND 727 N MCINTOSH ST</NAME>
<LOCATION>ST. BERNADETTE SCHOOL</LOCATION>
<TYPE>PLAYGROUND</TYPE>
<LONGITUDE>-104.65229285</LONGITUDE>
<LATITUDE>50.4887538534</LATITUDE>
</POI>
<POI>
<OBJECTID>52</OBJECTID>
<ADDRESS>727 N MCINTOSH STREET</ADDRESS>
<NAME>ST. BERNADETTE SCHOOL - BASKETBALL</NAME>
<LOCATION>ST. BERNADETTE SCHOOL</LOCATION>
<TYPE>BASKETBALL</TYPE>
<LONGITUDE>-104.651704266</LONGITUDE>
<LATITUDE>50.4891496362</LATITUDE>
</POI>
<POI>
<OBJECTID>53</OBJECTID>
<ADDRESS>727 N MCINTOSH STREET</ADDRESS>
<NAME>ST. BERNADETTE SCHOOL - ATHLETIC FIELD SOCCER ATHLETIC FIELD</NAME>
<LOCATION>ST. BERNADETTE SCHOOL</LOCATION>
<TYPE>ATHLETIC FIELD</TYPE>
<LONGITUDE>-104.65116949</LONGITUDE>
<LATITUDE>50.4887972415</LATITUDE>
</POI>
<POI>
<OBJECTID>54</OBJECTID>
<ADDRESS>727 N MCINTOSH STREET</ADDRESS>
<NAME>ST. BERNADETTE SCHOOL - BALL DIAMOND BS #205</NAME>
<LOCATION>ST. BERNADETTE SCHOOL</LOCATION>
<TYPE>BALL DIAMOND</TYPE>
<LONGITUDE>-104.651458274</LONGITUDE>
<LATITUDE>50.4885032535</LATITUDE>
</POI>
<POI>
<OBJECTID>55</OBJECTID>
<ADDRESS>727 N. McIntosh St.</ADDRESS>
<NAME>St. Bernadette - Separate Elementary School</NAME>
<LOCATION>St. Bernadette - Separate Elementary School</LOCATION>
<TYPE>Separate Elementary School</TYPE>
<LONGITUDE>-104.651859485</LONGITUDE>
<LATITUDE>50.488799244</LATITUDE>
</POI>
<POI>
<OBJECTID>56</OBJECTID>
<ADDRESS>45 MIKKELSON DR</ADDRESS>
<NAME>ST. FRANCIS SCHOOL - BASKETBALL</NAME>
<LOCATION>ST. FRANCIS SCHOOL</LOCATION>
<TYPE>BASKETBALL</TYPE>
<LONGITUDE>-104.665050405</LONGITUDE>
<LATITUDE>50.4651311147</LATITUDE>
</POI>
<POI>
<OBJECTID>57</OBJECTID>
<ADDRESS>45 MIKKELSON DRIVE</ADDRESS>
<NAME>ST. FRANCIS SCHOOL SW - BALL DIAMOND BS #143</NAME>
<LOCATION>ST. FRANCIS SCHOOL SW</LOCATION>
<TYPE>BALL DIAMOND</TYPE>
<LONGITUDE>-104.666486392</LONGITUDE>
<LATITUDE>50.4642997376</LATITUDE>
</POI>
<POI>
<OBJECTID>58</OBJECTID>
<ADDRESS>45 MIKKELSON DR</ADDRESS>
<NAME>ST. FRANCIS SCHOOL W - PLAYGROUND 45 MIKKELSON DR</NAME>
<LOCATION>ST. FRANCIS SCHOOL W</LOCATION>
<TYPE>PLAYGROUND</TYPE>
<LONGITUDE>-104.666161684</LONGITUDE>
<LATITUDE>50.464831582</LATITUDE>
</POI>
<POI>
<OBJECTID>59</OBJECTID>
<ADDRESS>45 MIKKELSON DRIVE</ADDRESS>
<NAME>ST. FRANCIS SCHOOL SE - BALL DIAMOND BS #142</NAME>
<LOCATION>ST. FRANCIS SCHOOL SE</LOCATION>
<TYPE>BALL DIAMOND</TYPE>
<LONGITUDE>-104.664863152</LONGITUDE>
<LATITUDE>50.4643024242</LATITUDE>
</POI>
<POI>
<OBJECTID>60</OBJECTID>
<ADDRESS>45 MIKKELSON DRIVE</ADDRESS>
<NAME>ST. FRANCIS SCHOOL - ATHLETIC FIELD SOCCER ATHLETIC FIELD</NAME>
<LOCATION>ST. FRANCIS SCHOOL</LOCATION>
<TYPE>ATHLETIC FIELD</TYPE>
<LONGITUDE>-104.66580004</LONGITUDE>
<LATITUDE>50.4645568691</LATITUDE>
</POI>
<POI>
<OBJECTID>61</OBJECTID>
<ADDRESS>45 MIKKELSON DR</ADDRESS>
<NAME>ST. FRANCIS SCHOOL NE - PLAYGROUND 45 MIKKELSON DR</NAME>
<LOCATION>ST. FRANCIS SCHOOL NE</LOCATION>
<TYPE>PLAYGROUND</TYPE>
<LONGITUDE>-104.664780399</LONGITUDE>
<LATITUDE>50.4651067188</LATITUDE>
</POI>
<POI>
<OBJECTID>62</OBJECTID>
<ADDRESS>45 MIKKELSON DR</ADDRESS>
<NAME>ST. FRANCIS SCHOOL SE - PLAYGROUND 45 MIKKELSON DR</NAME>
<LOCATION>ST. FRANCIS SCHOOL SE</LOCATION>
<TYPE>PLAYGROUND</TYPE>
<LONGITUDE>-104.66507714</LONGITUDE>
<LATITUDE>50.4649741768</LATITUDE>
</POI>
<POI>
<OBJECTID>63</OBJECTID>
<ADDRESS>45 Mikkelson Dr.</ADDRESS>
<NAME>St. Francis - Separate Elementary School</NAME>
<LOCATION>St. Francis - Separate Elementary School</LOCATION>
<TYPE>Separate Elementary School</TYPE>
<LONGITUDE>-104.665636048</LONGITUDE>
<LATITUDE>50.4648229537</LATITUDE>
</POI>
<POI>
<OBJECTID>64</OBJECTID>
<ADDRESS>6208 SHERWOOD DRIVE</ADDRESS>
<NAME>RUTH BUCK PARK - BALL DIAMOND BS #192</NAME>
<LOCATION>RUTH BUCK PARK</LOCATION>
<TYPE>BALL DIAMOND</TYPE>
<LONGITUDE>-104.673832191</LONGITUDE>
<LATITUDE>50.479470585</LATITUDE>
</POI>
<POI>
<OBJECTID>65</OBJECTID>
<ADDRESS>280 SANGSTER BLVD</ADDRESS>
<NAME>ST. TIMOTHY SCHOOL - PLAYGROUND 280 SANGSTER BLVD</NAME>
<LOCATION>ST. TIMOTHY SCHOOL</LOCATION>
<TYPE>PLAYGROUND</TYPE>
<LONGITUDE>-104.632405865</LONGITUDE>
<LATITUDE>50.4912782157</LATITUDE>
</POI>
<POI>
<OBJECTID>66</OBJECTID>
<ADDRESS>280 SANGSTER BOULEVARD</ADDRESS>
<NAME>ST. TIMOTHY SCHOOL - BALL DIAMOND BS #264</NAME>
<LOCATION>ST. TIMOTHY SCHOOL</LOCATION>
<TYPE>BALL DIAMOND</TYPE>
<LONGITUDE>-104.63257265</LONGITUDE>
<LATITUDE>50.4906472774</LATITUDE>
</POI>
<POI>
<OBJECTID>67</OBJECTID>
<ADDRESS>126 SANGSTER BLVD</ADDRESS>
<NAME>ST TIMOTHY SOCCER - ATHLETIC FIELD SOCCER ATHLETIC FIELD</NAME>
<LOCATION>ST TIMOTHY SOCCER</LOCATION>
<TYPE>ATHLETIC FIELD</TYPE>
<LONGITUDE>-104.633589459</LONGITUDE>
<LATITUDE>50.4906620122</LATITUDE>
</POI>
<POI>
<OBJECTID>68</OBJECTID>
<ADDRESS>280 SANGSTER BOULEVARD</ADDRESS>
<NAME>ST. TIMOTHY SCHOOL - BASKETBALL</NAME>
<LOCATION>ST. TIMOTHY SCHOOL</LOCATION>
<TYPE>BASKETBALL</TYPE>
<LONGITUDE>-104.632497741</LONGITUDE>
<LATITUDE>50.491042857</LATITUDE>
</POI>
<POI>
<OBJECTID>69</OBJECTID>
<ADDRESS>280 SANGSTER BOULEVARD</ADDRESS>
<NAME>ST. TIMOTHY MULTI - ATHLETIC FIELD MULTI-USE ATHLETIC FIELD</NAME>
<LOCATION>ST. TIMOTHY MULTI</LOCATION>
<TYPE>ATHLETIC FIELD</TYPE>
<LONGITUDE>-104.633590159</LONGITUDE>
<LATITUDE>50.4906593379</LATITUDE>
</POI>
<POI>
<OBJECTID>70</OBJECTID>
<ADDRESS>280 Sangster Blvd.</ADDRESS>
<NAME>St. Timothy - Separate Elementary School</NAME>
<LOCATION>St. Timothy - Separate Elementary School</LOCATION>
<TYPE>Separate Elementary School</TYPE>
<LONGITUDE>-104.632798005</LONGITUDE>
<LATITUDE>50.4909257545</LATITUDE>
</POI>
<POI>
<OBJECTID>71</OBJECTID>
<ADDRESS>10 NORRIS ROAD</ADDRESS>
<NAME>BIRCHWOOD PARK NW - BALL DIAMOND BS #4</NAME>
<LOCATION>BIRCHWOOD PARK NW</LOCATION>
<TYPE>BALL DIAMOND</TYPE>
<LONGITUDE>-104.602463821</LONGITUDE>
<LATITUDE>50.4010781678</LATITUDE>
</POI>
<POI>
<OBJECTID>72</OBJECTID>
<ADDRESS>10 NORRIS ROAD</ADDRESS>
<NAME>BIRCHWOOD PARK SE - BALL DIAMOND BS #3</NAME>
<LOCATION>BIRCHWOOD PARK SE</LOCATION>
<TYPE>BALL DIAMOND</TYPE>
<LONGITUDE>-104.601822029</LONGITUDE>
<LATITUDE>50.4006951591</LATITUDE>
</POI>
<POI>
<OBJECTID>73</OBJECTID>
<ADDRESS>2155 COLLEGE AVENUE</ADDRESS>
<NAME>University of Regina - College Ave. Campus</NAME>
<LOCATION>University of Regina - College Ave. Campus</LOCATION>
<TYPE>Other School</TYPE>
<LONGITUDE>-104.610178145</LONGITUDE>
<LATITUDE>50.439553923</LATITUDE>
</POI>
<POI>
<OBJECTID>74</OBJECTID>
<ADDRESS>2155 COLLEGE AVENUE</ADDRESS>
<NAME>UNIVERSITY OF REGINA COLLEGE AVE CAMPUS</NAME>
<LOCATION>Wascana Centre</LOCATION>
<TYPE>Wascana Centre</TYPE>
<LONGITUDE>-104.610997059</LONGITUDE>
<LATITUDE>50.440033118</LATITUDE>
</POI>
<POI>
<OBJECTID>75</OBJECTID>
<ADDRESS>710 GRAHAM RD</ADDRESS>
<NAME>HENRY BRAUN PARK E - BALL DIAMOND BS #112</NAME>
<LOCATION>HENRY BRAUN PARK E</LOCATION>
<TYPE>BALL DIAMOND</TYPE>
<LONGITUDE>-104.532840669</LONGITUDE>
<LATITUDE>50.461665655</LATITUDE>
</POI>
<POI>
<OBJECTID>76</OBJECTID>
<ADDRESS>195 WINDFIELD RD</ADDRESS>
<NAME>ST. DOMINIC SAVIO SCHOOL - PLAYGROUND 195 WINDFIELD RD</NAME>
<LOCATION>ST. DOMINIC SAVIO SCHOOL</LOCATION>
<TYPE>PLAYGROUND</TYPE>
<LONGITUDE>-104.562376612</LONGITUDE>
<LATITUDE>50.4321311471</LATITUDE>
</POI>
<POI>
<OBJECTID>77</OBJECTID>
<ADDRESS>195 WINDFIELD ROAD</ADDRESS>
<NAME>ST. DOMINIC SAVIO SCHOOL - BALL DIAMOND BS #82</NAME>
<LOCATION>ST. DOMINIC SAVIO SCHOOL</LOCATION>
<TYPE>BALL DIAMOND</TYPE>
<LONGITUDE>-104.561931202</LONGITUDE>
<LATITUDE>50.431878502</LATITUDE>
</POI>
<POI>
<OBJECTID>78</OBJECTID>
<ADDRESS>195 Windfield Rd.</ADDRESS>
<NAME>St. Dominic Savio - Separate Elementary School</NAME>
<LOCATION>St. Dominic Savio - Separate Elementary School</LOCATION>
<TYPE>Separate Elementary School</TYPE>
<LONGITUDE>-104.562816425</LONGITUDE>
<LATITUDE>50.4316541784</LATITUDE>
</POI>
<POI>
<OBJECTID>79</OBJECTID>
<ADDRESS>3310 LAKEVIEW AVENUE</ADDRESS>
<NAME>KINSMEN SOUTH SOCCER - ATHLETIC FIELD SOCCER ATHLETIC FIELD</NAME>
<LOCATION>KINSMEN SOUTH SOCCER</LOCATION>
<TYPE>ATHLETIC FIELD</TYPE>
<LONGITUDE>-104.63097614</LONGITUDE>
<LATITUDE>50.4232102003</LATITUDE>
</POI>
<POI>
<OBJECTID>80</OBJECTID>
<ADDRESS>3310 LAKEVIEW AVE</ADDRESS>
<NAME>KINSMEN PARK SOUTH - SEASONAL WASHROOM</NAME>
<LOCATION>KINSMEN PARK SOUTH</LOCATION>
<TYPE>SEASONAL WASHROOM</TYPE>
<LONGITUDE>-104.632622696</LONGITUDE>
<LATITUDE>50.4234735508</LATITUDE>
</POI>
<POI>
<OBJECTID>81</OBJECTID>
<ADDRESS>3310 LAKEVIEW AVE</ADDRESS>
<NAME>KINSMEN PARK SOUTH - PLAYGROUND 3310 LAKEVIEW AVE</NAME>
<LOCATION>KINSMEN PARK SOUTH</LOCATION>
<TYPE>PLAYGROUND</TYPE>
<LONGITUDE>-104.631648315</LONGITUDE>
<LATITUDE>50.4237922988</LATITUDE>
</POI>
<POI>
<OBJECTID>82</OBJECTID>
<ADDRESS>3310 LAKEVIEW AVENUE</ADDRESS>
<NAME>KINSMEN PARK SOUTH - BALL DIAMOND BS #42</NAME>
<LOCATION>KINSMEN PARK SOUTH</LOCATION>
<TYPE>BALL DIAMOND</TYPE>
<LONGITUDE>-104.629459954</LONGITUDE>
<LATITUDE>50.4228517639</LATITUDE>
</POI>
<POI>
<OBJECTID>83</OBJECTID>
<ADDRESS>3310 LAKEVIEW AVE</ADDRESS>
<NAME>KINSMEN SOUTH SOCCER - ATHLETIC FIELD SOCCER ATHLETIC FIELD</NAME>
<LOCATION>KINSMEN SOUTH SOCCER</LOCATION>
<TYPE>ATHLETIC FIELD</TYPE>
<LONGITUDE>-104.630979132</LONGITUDE>
<LATITUDE>50.4231783156</LATITUDE>
</POI>
<POI>
<OBJECTID>84</OBJECTID>
<ADDRESS>3310 LAKEVIEW AVENUE</ADDRESS>
<NAME>KINSMEN PARK SOUTH - SPRAYPAD 3310 LAKEVIEW AVE</NAME>
<LOCATION>KINSMEN PARK SOUTH</LOCATION>
<TYPE>SPRAYPAD</TYPE>
<LONGITUDE>-104.632203471</LONGITUDE>
<LATITUDE>50.4238749112</LATITUDE>
</POI>
<POI>
<OBJECTID>85</OBJECTID>
<ADDRESS>3211 ALBERT STREET</ADDRESS>
<NAME>PROVINCIAL OFFICE BUILDING AND LABORATORY</NAME>
<LOCATION>Wascana Centre</LOCATION>
<TYPE>Wascana Centre</TYPE>
<LONGITUDE>-104.615141852</LONGITUDE>
<LATITUDE>50.4272858385</LATITUDE>
</POI>
<POI>
<OBJECTID>86</OBJECTID>
<ADDRESS>1401 ROBINSON ST.</ADDRESS>
<NAME>ALBERT BRANCH LIBRARY</NAME>
<LOCATION>ALBERT BRANCH LIBRARY</LOCATION>
<TYPE>Library</TYPE>
<LONGITUDE>-104.623536041</LONGITUDE>
<LATITUDE>50.4565423712</LATITUDE>
</POI>
<POI>
<OBJECTID>87</OBJECTID>
<ADDRESS>150 ARGYLE ST</ADDRESS>
<NAME>ST. PETER SCHOOL - PLAYGROUND 150 ARGYLE ST</NAME>
<LOCATION>ST. PETER SCHOOL</LOCATION>
<TYPE>PLAYGROUND</TYPE>
<LONGITUDE>-104.633694052</LONGITUDE>
<LATITUDE>50.4764116195</LATITUDE>
</POI>
<POI>
<OBJECTID>88</OBJECTID>
<ADDRESS>150 ARGYLE STREET</ADDRESS>
<NAME>ST. PETER SCHOOL - BALL DIAMOND BS #260</NAME>
<LOCATION>ST. PETER SCHOOL</LOCATION>
<TYPE>BALL DIAMOND</TYPE>
<LONGITUDE>-104.635096019</LONGITUDE>
<LATITUDE>50.4761723502</LATITUDE>
</POI>
<POI>
<OBJECTID>89</OBJECTID>
<ADDRESS>150 Argyle St.</ADDRESS>
<NAME>St. Peter - Separate Elementary School</NAME>
<LOCATION>St. Peter - Separate Elementary School</LOCATION>
<TYPE>Separate Elementary School</TYPE>
<LONGITUDE>-104.634115338</LONGITUDE>
<LATITUDE>50.4764694032</LATITUDE>
</POI>
<POI>
<OBJECTID>90</OBJECTID>
<ADDRESS>160 BROAD ST.</ADDRESS>
<NAME>NORTH EAST COMMUNITY CENTRE - REC_NBHD FACILITY</NAME>
<LOCATION>NORTH EAST COMMUNITY CENTRE</LOCATION>
<TYPE>REC_NBHD FACILITY</TYPE>
<LONGITUDE>-104.607036037</LONGITUDE>
<LATITUDE>50.4763620849</LATITUDE>
</POI>
<POI>
<OBJECTID>91</OBJECTID>
<ADDRESS>150 BROTHERTON AVENUE</ADDRESS>
<NAME>ST. CATHERINE SCHOOL - BASKETBALL</NAME>
<LOCATION>ST. CATHERINE SCHOOL</LOCATION>
<TYPE>BASKETBALL</TYPE>
<LONGITUDE>-104.554314919</LONGITUDE>
<LATITUDE>50.4531387075</LATITUDE>
</POI>
<POI>
<OBJECTID>92</OBJECTID>
<ADDRESS>150 BROTHERTON AVE</ADDRESS>
<NAME>ST. CATHERINE SCHOOL - PLAYGROUND 150 BROTHERTON AVE</NAME>
<LOCATION>ST. CATHERINE SCHOOL</LOCATION>
<TYPE>PLAYGROUND</TYPE>
<LONGITUDE>-104.554346791</LONGITUDE>
<LATITUDE>50.4527308605</LATITUDE>
</POI>
<POI>
<OBJECTID>93</OBJECTID>
<ADDRESS>150 BROTHERTON AVENUE</ADDRESS>
<NAME>ST. CATHERINE SCHOOL - ATHLETIC FIELD SOCCER ATHLETIC FIELD</NAME>
<LOCATION>ST. CATHERINE SCHOOL</LOCATION>
<TYPE>ATHLETIC FIELD</TYPE>
<LONGITUDE>-104.553960359</LONGITUDE>
<LATITUDE>50.4535658129</LATITUDE>
</POI>
<POI>
<OBJECTID>94</OBJECTID>
<ADDRESS>150 Brotherton Ave.</ADDRESS>
<NAME>St. Catherine - Separate Elementary School</NAME>
<LOCATION>St. Catherine - Separate Elementary School</LOCATION>
<TYPE>Separate Elementary School</TYPE>
<LONGITUDE>-104.553809425</LONGITUDE>
<LATITUDE>50.4530675251</LATITUDE>
</POI>
<POI>
<OBJECTID>95</OBJECTID>
<ADDRESS>1201 ROTHWELL STREET</ADDRESS>
<NAME>ROTHWELL - ATHLETIC FIELD SOCCER ATHLETIC FIELD</NAME>
<LOCATION>ROTHWELL</LOCATION>
<TYPE>ATHLETIC FIELD</TYPE>
<LONGITUDE>-104.569385981</LONGITUDE>
<LATITUDE>50.4587230457</LATITUDE>
</POI>
<POI>
<OBJECTID>96</OBJECTID>
<ADDRESS>1201 ROTHWELL ST</ADDRESS>
<NAME>ROTHWELL PARK - PLAYGROUND 1201 ROTHWELL ST</NAME>
<LOCATION>ROTHWELL PARK</LOCATION>
<TYPE>PLAYGROUND</TYPE>
<LONGITUDE>-104.570107649</LONGITUDE>
<LATITUDE>50.4586730213</LATITUDE>
</POI>
<POI>
<OBJECTID>97</OBJECTID>
<ADDRESS>2255 COLLEGE AVENUE</ADDRESS>
<NAME>DARKE HALL</NAME>
<LOCATION>Wascana Centre</LOCATION>
<TYPE>Wascana Centre</TYPE>
<LONGITUDE>-104.612242961</LONGITUDE>
<LATITUDE>50.4399389926</LATITUDE>
</POI>
<POI>
<OBJECTID>98</OBJECTID>
<ADDRESS>170 FUHRMANN CRESCENT</ADDRESS>
<NAME>FUHRMANN PARK - OUTDOOR RINK UNBOARDED</NAME>
<LOCATION>FUHRMANN PARK</LOCATION>
<TYPE>OUTDOOR RINK UNBOARDED</TYPE>
<LONGITUDE>-104.657787039</LONGITUDE>
<LATITUDE>50.4871068603</LATITUDE>
</POI>
<POI>
<OBJECTID>99</OBJECTID>
<ADDRESS>170 FUHRMANN CRESCENT</ADDRESS>
<NAME>FUHRMANN PARK - ATHLETIC FIELD SOCCER ATHLETIC FIELD</NAME>
<LOCATION>FUHRMANN PARK</LOCATION>
<TYPE>ATHLETIC FIELD</TYPE>
<LONGITUDE>-104.657572192</LONGITUDE>
<LATITUDE>50.4871576454</LATITUDE>
</POI>
<POI>
<OBJECTID>100</OBJECTID>
<ADDRESS>170 FUHRMANN CRES</ADDRESS>
<NAME>FUHRMANN PARK - OUTDOOR RINK SHELTER</NAME>
<LOCATION>FUHRMANN PARK</LOCATION>
<TYPE>OUTDOOR RINK SHELTER</TYPE>
<LONGITUDE>-104.657888577</LONGITUDE>
<LATITUDE>50.4870050562</LATITUDE>
</POI>
<POI>
<OBJECTID>101</OBJECTID>
<ADDRESS>770 RINK AVENUE</ADDRESS>
<NAME>ST. JEROME SCHOOL - BASKETBALL</NAME>
<LOCATION>ST. JEROME SCHOOL</LOCATION>
<TYPE>BASKETBALL</TYPE>
<LONGITUDE>-104.681444925</LONGITUDE>
<LATITUDE>50.4885353173</LATITUDE>
</POI>
<POI>
<OBJECTID>102</OBJECTID>
<ADDRESS>770 RINK AVE</ADDRESS>
<NAME>ST. JEROME SCHOOL - PLAYGROUND 770 RINK AVE</NAME>
<LOCATION>ST. JEROME SCHOOL</LOCATION>
<TYPE>PLAYGROUND</TYPE>
<LONGITUDE>-104.681454466</LONGITUDE>
<LATITUDE>50.4882464456</LATITUDE>
</POI>
<POI>
<OBJECTID>103</OBJECTID>
<ADDRESS>770 Rink Ave.</ADDRESS>
<NAME>St. Jerome - Separate Elementary School</NAME>
<LOCATION>St. Jerome - Separate Elementary School</LOCATION>
<TYPE>Separate Elementary School</TYPE>
<LONGITUDE>-104.681783955</LONGITUDE>
<LATITUDE>50.488468007</LATITUDE>
</POI>
<POI>
<OBJECTID>104</OBJECTID>
<ADDRESS>2405 LEGISLATIVE DRIVE</ADDRESS>
<NAME>LEGISLATIVE BUILDING</NAME>
<LOCATION>Wascana Centre</LOCATION>
<TYPE>Wascana Centre</TYPE>
<LONGITUDE>-104.615146426</LONGITUDE>
<LATITUDE>50.4324631722</LATITUDE>
</POI>
<POI>
<OBJECTID>105</OBJECTID>
<ADDRESS>2640 31st Ave</ADDRESS>
<NAME>Fire Hall No. 3</NAME>
<LOCATION>TOM YARNTON Fire Hall</LOCATION>
<TYPE>Fire</TYPE>
<LONGITUDE>-104.619450144</LONGITUDE>
<LATITUDE>50.4104556012</LATITUDE>
</POI>
<POI>
<OBJECTID>106</OBJECTID>
<ADDRESS>901 PRINCESS ST</ADDRESS>
<NAME>PARKDALE PARK - PLAYGROUND 901 PRINCESS ST</NAME>
<LOCATION>PARKDALE PARK</LOCATION>
<TYPE>PLAYGROUND</TYPE>
<LONGITUDE>-104.634411519</LONGITUDE>
<LATITUDE>50.4634850991</LATITUDE>
</POI>
<POI>
<OBJECTID>107</OBJECTID>
<ADDRESS>901 PRINCESS STREET</ADDRESS>
<NAME>PARKDALE PARK - ATHLETIC FIELD SOCCER ATHLETIC FIELD</NAME>
<LOCATION>PARKDALE PARK</LOCATION>
<TYPE>ATHLETIC FIELD</TYPE>
<LONGITUDE>-104.635047171</LONGITUDE>
<LATITUDE>50.4635182201</LATITUDE>
</POI>
<POI>
<OBJECTID>108</OBJECTID>
<ADDRESS>901 PRINCESS STREET</ADDRESS>
<NAME>PARKDALE PARK - BALL DIAMOND BS #155</NAME>
<LOCATION>PARKDALE PARK</LOCATION>
<TYPE>BALL DIAMOND</TYPE>
<LONGITUDE>-104.634349298</LONGITUDE>
<LATITUDE>50.4642871192</LATITUDE>
</POI>
<POI>
<OBJECTID>109</OBJECTID>
<ADDRESS>3475 ALBERT STREET</ADDRESS>
<NAME>TC DOUGLAS BUILDING AND MACKENZIE ART GALLERY</NAME>
<LOCATION>Wascana Centre</LOCATION>
<TYPE>Wascana Centre</TYPE>
<LONGITUDE>-104.616403196</LONGITUDE>
<LATITUDE>50.4251399425</LATITUDE>
</POI>
<POI>
<OBJECTID>110</OBJECTID>
<ADDRESS>1851 JUBILEE AVENUE</ADDRESS>
<NAME>MCVEETY PARK - OUTDOOR RINK UNBOARDED</NAME>
<LOCATION>MCVEETY PARK</LOCATION>
<TYPE>OUTDOOR RINK UNBOARDED</TYPE>
<LONGITUDE>-104.606946824</LONGITUDE>
<LATITUDE>50.4205225015</LATITUDE>
</POI>
<POI>
<OBJECTID>111</OBJECTID>
<ADDRESS>1851 JUBILEE AVE</ADDRESS>
<NAME>MCVEETY PARK - BALL DIAMOND</NAME>
<LOCATION>MCVEETY PARK</LOCATION>
<TYPE>BALL DIAMOND</TYPE>
<LONGITUDE>-104.606293313</LONGITUDE>
<LATITUDE>50.4197423359</LATITUDE>
</POI>
<POI>
<OBJECTID>112</OBJECTID>
<ADDRESS>38 TURGEON CRES</ADDRESS>
<NAME>MARION MCVEETY SCHOOL - OUTDOOR RINK SHELTER</NAME>
<LOCATION>MARION MCVEETY SCHOOL</LOCATION>
<TYPE>OUTDOOR RINK SHELTER</TYPE>
<LONGITUDE>-104.606995836</LONGITUDE>
<LATITUDE>50.4208099389</LATITUDE>
</POI>
<POI>
<OBJECTID>113</OBJECTID>
<ADDRESS>1851 JUBILEE AVENUE</ADDRESS>
<NAME>MCVEETY PARK - OUTDOOR RINK BOARDED</NAME>
<LOCATION>MCVEETY PARK</LOCATION>
<TYPE>OUTDOOR RINK BOARDED</TYPE>
<LONGITUDE>-104.60739543</LONGITUDE>
<LATITUDE>50.4204928195</LATITUDE>
</POI>
<POI>
<OBJECTID>114</OBJECTID>
<ADDRESS>1851 JUBILEE AVE</ADDRESS>
<NAME>MCVEETY PARK - PLAYGROUND 1851 JUBILEE AVE</NAME>
<LOCATION>MCVEETY PARK</LOCATION>
<TYPE>PLAYGROUND</TYPE>
<LONGITUDE>-104.606601029</LONGITUDE>
<LATITUDE>50.4208297072</LATITUDE>
</POI>
<POI>
<OBJECTID>115</OBJECTID>
<ADDRESS>1851 JUBILEE AVENUE</ADDRESS>
<NAME>MCVEETY PARK - BALL DIAMOND BS #29</NAME>
<LOCATION>MCVEETY PARK</LOCATION>
<TYPE>BALL DIAMOND</TYPE>
<LONGITUDE>-104.607280479</LONGITUDE>
<LATITUDE>50.419732621</LATITUDE>
</POI>
<POI>
<OBJECTID>116</OBJECTID>
<ADDRESS>30 WILLISTON DRIVE</ADDRESS>
<NAME>WILLISTON PARK  - ATHLETIC FIELD SOCCER ATHLETIC FIELD</NAME>
<LOCATION>WILLISTON PARK</LOCATION>
<TYPE>ATHLETIC FIELD</TYPE>
<LONGITUDE>-104.679097304</LONGITUDE>
<LATITUDE>50.4819306954</LATITUDE>
</POI>
<POI>
<OBJECTID>117</OBJECTID>
<ADDRESS>30 WILLISTON DRIVE</ADDRESS>
<NAME>WILLISTON PARK - OUTDOOR RINK UNBOARDED</NAME>
<LOCATION>WILLISTON PARK</LOCATION>
<TYPE>OUTDOOR RINK UNBOARDED</TYPE>
<LONGITUDE>-104.677655757</LONGITUDE>
<LATITUDE>50.4812806422</LATITUDE>
</POI>
<POI>
<OBJECTID>118</OBJECTID>
<ADDRESS>30 WILLISTON DR</ADDRESS>
<NAME>WILLISTON PARK - PLAYGROUND 30 WILLISTON DR</NAME>
<LOCATION>WILLISTON PARK</LOCATION>
<TYPE>PLAYGROUND</TYPE>
<LONGITUDE>-104.678314455</LONGITUDE>
<LATITUDE>50.4821863551</LATITUDE>
</POI>
<POI>
<OBJECTID>119</OBJECTID>
<ADDRESS>2828 E DEWDNEY AVE</ADDRESS>
<NAME>JUDGE BRYANT SCHOOL - PLAYGROUND 2828 E DEWDNEY AVE</NAME>
<LOCATION>JUDGE BRYANT SCHOOL</LOCATION>
<TYPE>PLAYGROUND</TYPE>
<LONGITUDE>-104.542673423</LONGITUDE>
<LATITUDE>50.4559596678</LATITUDE>
</POI>
<POI>
<OBJECTID>120</OBJECTID>
<ADDRESS>2828 E DEWDNEY AVE</ADDRESS>
<NAME>JUDGE BRYANT SCHOOL - BASKETBALL</NAME>
<LOCATION>JUDGE BRYANT SCHOOL</LOCATION>
<TYPE>BASKETBALL</TYPE>
<LONGITUDE>-104.542565789</LONGITUDE>
<LATITUDE>50.45613319</LATITUDE>
</POI>
<POI>
<OBJECTID>121</OBJECTID>
<ADDRESS>2828 E. Dewdney Ave.</ADDRESS>
<NAME>Judge Bryant - Public Elementary School</NAME>
<LOCATION>Judge Bryant - Public Elementary School</LOCATION>
<TYPE>Public Elementary School</TYPE>
<LONGITUDE>-104.541976705</LONGITUDE>
<LATITUDE>50.4556158265</LATITUDE>
</POI>
<POI>
<OBJECTID>122</OBJECTID>
<ADDRESS>126 SANGSTER BLVD</ADDRESS>
<NAME>STAN OXELGREN PARK - PLAYGROUND 126 SANGSTER BLVD</NAME>
<LOCATION>STAN OXELGREN PARK</LOCATION>
<TYPE>PLAYGROUND</TYPE>
<LONGITUDE>-104.635105823</LONGITUDE>
<LATITUDE>50.4894236653</LATITUDE>
</POI>
<POI>
<OBJECTID>123</OBJECTID>
<ADDRESS>126 SANGSTER BOULEVARD</ADDRESS>
<NAME>STAN OXELGREN PARK - OUTDOOR RINK UNBOARDED</NAME>
<LOCATION>STAN OXELGREN PARK</LOCATION>
<TYPE>OUTDOOR RINK UNBOARDED</TYPE>
<LONGITUDE>-104.633808691</LONGITUDE>
<LATITUDE>50.4896494379</LATITUDE>
</POI>
<POI>
<OBJECTID>124</OBJECTID>
<ADDRESS>126 SANGSTER BLVD</ADDRESS>
<NAME>STAN OXELGREN PARK - OUTDOOR RINK SHELTER</NAME>
<LOCATION>STAN OXELGREN PARK</LOCATION>
<TYPE>OUTDOOR RINK SHELTER</TYPE>
<LONGITUDE>-104.633608277</LONGITUDE>
<LATITUDE>50.4899590485</LATITUDE>
</POI>
<POI>
<OBJECTID>125</OBJECTID>
<ADDRESS>126 SANGSTER BOULEVARD</ADDRESS>
<NAME>STAN OXELGREN PARK - OUTDOOR RINK BOARDED</NAME>
<LOCATION>STAN OXELGREN PARK</LOCATION>
<TYPE>OUTDOOR RINK BOARDED</TYPE>
<LONGITUDE>-104.633308052</LONGITUDE>
<LATITUDE>50.4896579059</LATITUDE>
</POI>
<POI>
<OBJECTID>126</OBJECTID>
<ADDRESS>635 E DOUGLAS AVENUE</ADDRESS>
<NAME>DOUGLAS PARK SCHOOL NE - BALL DIAMOND BS #64</NAME>
<LOCATION>DOUGLAS PARK SCHOOL NE</LOCATION>
<TYPE>BALL DIAMOND</TYPE>
<LONGITUDE>-104.573331627</LONGITUDE>
<LATITUDE>50.4319456934</LATITUDE>
</POI>
<POI>
<OBJECTID>127</OBJECTID>
<ADDRESS>635 E DOUGLAS AVENUE</ADDRESS>
<NAME>DOUGLAS PARK SCHOOL - BASKETBALL</NAME>
<LOCATION>DOUGLAS PARK SCHOOL</LOCATION>
<TYPE>BASKETBALL</TYPE>
<LONGITUDE>-104.574880623</LONGITUDE>
<LATITUDE>50.4323166599</LATITUDE>
</POI>
<POI>
<OBJECTID>128</OBJECTID>
<ADDRESS>635 E DOUGLAS AVENUE</ADDRESS>
<NAME>DOUGLAS PARK SCHOOL NW - BALL DIAMOND BS #63</NAME>
<LOCATION>DOUGLAS PARK SCHOOL NW</LOCATION>
<TYPE>BALL DIAMOND</TYPE>
<LONGITUDE>-104.57439365</LONGITUDE>
<LATITUDE>50.4319557218</LATITUDE>
</POI>
<POI>
<OBJECTID>129</OBJECTID>
<ADDRESS>621 E DOUGLAS AVE</ADDRESS>
<NAME>DOUGLAS PARK SCHOOL N - PLAYGROUND 621 E DOUGLAS AVE</NAME>
<LOCATION>DOUGLAS PARK SCHOOL N</LOCATION>
<TYPE>PLAYGROUND</TYPE>
<LONGITUDE>-104.574670644</LONGITUDE>
<LATITUDE>50.432972814</LATITUDE>
</POI>
<POI>
<OBJECTID>130</OBJECTID>
<ADDRESS>621 E DOUGLAS AVE</ADDRESS>
<NAME>DOUGLAS PARK SCHOOL S - PLAYGROUND 621 E DOUGLAS AVE</NAME>
<LOCATION>DOUGLAS PARK SCHOOL S</LOCATION>
<TYPE>PLAYGROUND</TYPE>
<LONGITUDE>-104.574431253</LONGITUDE>
<LATITUDE>50.4325766594</LATITUDE>
</POI>
<POI>
<OBJECTID>131</OBJECTID>
<ADDRESS>635 E DOUGLAS AVENUE</ADDRESS>
<NAME>DOUGLAS PARK SCHOOL - ATHLETIC FIELD SOCCER ATHLETIC FIELD</NAME>
<LOCATION>DOUGLAS PARK SCHOOL</LOCATION>
<TYPE>ATHLETIC FIELD</TYPE>
<LONGITUDE>-104.573742152</LONGITUDE>
<LATITUDE>50.4327913714</LATITUDE>
</POI>
<POI>
<OBJECTID>132</OBJECTID>
<ADDRESS>635 E. Douglas Ave.</ADDRESS>
<NAME>Douglas Park - Public Elementary School</NAME>
<LOCATION>Douglas Park - Public Elementary School</LOCATION>
<TYPE>Public Elementary School</TYPE>
<LONGITUDE>-104.57435821</LONGITUDE>
<LATITUDE>50.432302197</LATITUDE>
</POI>
<POI>
<OBJECTID>133</OBJECTID>
<ADDRESS>2707 E 7TH AVE</ADDRESS>
<NAME>ST. THERESA SCHOOL S - PLAYGROUND 2707 E 7TH AVE</NAME>
<LOCATION>ST. THERESA SCHOOL S</LOCATION>
<TYPE>PLAYGROUND</TYPE>
<LONGITUDE>-104.544162116</LONGITUDE>
<LATITUDE>50.4579523527</LATITUDE>
</POI>
<POI>
<OBJECTID>134</OBJECTID>
<ADDRESS>2707 E 7TH AVE</ADDRESS>
<NAME>ST. THERESA SCHOOL N - PLAYGROUND 2707 E 7TH AVE</NAME>
<LOCATION>ST. THERESA SCHOOL N</LOCATION>
<TYPE>PLAYGROUND</TYPE>
<LONGITUDE>-104.544005897</LONGITUDE>
<LATITUDE>50.4585526305</LATITUDE>
</POI>
<POI>
<OBJECTID>135</OBJECTID>
<ADDRESS>2707 E 7TH AVENUE</ADDRESS>
<NAME>ST. THERESA SCHOOL - BASKETBALL</NAME>
<LOCATION>ST. THERESA SCHOOL</LOCATION>
<TYPE>BASKETBALL</TYPE>
<LONGITUDE>-104.5433155</LONGITUDE>
<LATITUDE>50.4580385109</LATITUDE>
</POI>
<POI>
<OBJECTID>136</OBJECTID>
<ADDRESS>2707 E 7TH AVENUE</ADDRESS>
<NAME>ST. THERESA SCHOOL - BALL DIAMOND BS #86</NAME>
<LOCATION>ST. THERESA SCHOOL</LOCATION>
<TYPE>BALL DIAMOND</TYPE>
<LONGITUDE>-104.543922833</LONGITUDE>
<LATITUDE>50.4578051611</LATITUDE>
</POI>
<POI>
<OBJECTID>137</OBJECTID>
<ADDRESS>2707 E. 7th Ave.</ADDRESS>
<NAME>St. Theresa - Separate Elementary School</NAME>
<LOCATION>St. Theresa - Separate Elementary School</LOCATION>
<TYPE>Separate Elementary School</TYPE>
<LONGITUDE>-104.543512681</LONGITUDE>
<LATITUDE>50.4582451758</LATITUDE>
</POI>
<POI>
<OBJECTID>138</OBJECTID>
<ADDRESS>1055 N MCINTOSH ST</ADDRESS>
<NAME>FRENCH PARK - PLAYGROUND 1055 N MCINTOSH ST</NAME>
<LOCATION>FRENCH PARK</LOCATION>
<TYPE>PLAYGROUND</TYPE>
<LONGITUDE>-104.652081959</LONGITUDE>
<LATITUDE>50.492912316</LATITUDE>
</POI>
<POI>
<OBJECTID>139</OBJECTID>
<ADDRESS>3215 LAKEVIEW AVENUE</ADDRESS>
<NAME>L&apos;ARCHE PARK/ARGYLE SCHOOL - BALL DIAMOND BS #1</NAME>
<LOCATION>L&apos;ARCHE PARK/ARGYLE SCHOOL</LOCATION>
<TYPE>BALL DIAMOND</TYPE>
<LONGITUDE>-104.626741578</LONGITUDE>
<LATITUDE>50.4206985627</LATITUDE>
</POI>
<POI>
<OBJECTID>140</OBJECTID>
<ADDRESS>3215 LAKEVIEW AVENUE</ADDRESS>
<NAME>L&apos;ARCHE PARK/ARGYLE SCHOOL - BALL DIAMOND BS #2</NAME>
<LOCATION>L&apos;ARCHE PARK/ARGYLE SCHOOL</LOCATION>
<TYPE>BALL DIAMOND</TYPE>
<LONGITUDE>-104.627013406</LONGITUDE>
<LATITUDE>50.4215359027</LATITUDE>
</POI>
<POI>
<OBJECTID>141</OBJECTID>
<ADDRESS>1101 8TH AVE N</ADDRESS>
<NAME>DOVER PARK - PLAYGROUND 1101 8TH AVE N</NAME>
<LOCATION>DOVER PARK</LOCATION>
<TYPE>PLAYGROUND</TYPE>
<LONGITUDE>-104.597047367</LONGITUDE>
<LATITUDE>50.4831343647</LATITUDE>
</POI>
<POI>
<OBJECTID>142</OBJECTID>
<ADDRESS>8103 SHERWOOD DRIVE</ADDRESS>
<NAME>WESTHILL PARK - ATHLETIC FIELD SOCCER ATHLETIC FIELD</NAME>
<LOCATION>WESTHILL PARK</LOCATION>
<TYPE>ATHLETIC FIELD</TYPE>
<LONGITUDE>-104.69923806</LONGITUDE>
<LATITUDE>50.4804352036</LATITUDE>
</POI>
<POI>
<OBJECTID>143</OBJECTID>
<ADDRESS>8103 SHERWOOD DR</ADDRESS>
<NAME>WESTHILL PARK - BASKETBALL</NAME>
<LOCATION>WESTHILL PARK</LOCATION>
<TYPE>BASKETBALL</TYPE>
<LONGITUDE>-104.699807771</LONGITUDE>
<LATITUDE>50.4800820223</LATITUDE>
</POI>
<POI>
<OBJECTID>144</OBJECTID>
<ADDRESS>8103 SHERWOOD DR</ADDRESS>
<NAME>WESTHILL PARK - PLAYGROUND 8103 SHERWOOD DR</NAME>
<LOCATION>WESTHILL PARK</LOCATION>
<TYPE>PLAYGROUND</TYPE>
<LONGITUDE>-104.697690836</LONGITUDE>
<LATITUDE>50.4812448114</LATITUDE>
</POI>
<POI>
<OBJECTID>145</OBJECTID>
<ADDRESS>2606 GRANT ROAD</ADDRESS>
<NAME>MIKE BADHAM PARK - OUTDOOR RINK BOARDED</NAME>
<LOCATION>MIKE BADHAM PARK</LOCATION>
<TYPE>OUTDOOR RINK BOARDED</TYPE>
<LONGITUDE>-104.611114306</LONGITUDE>
<LATITUDE>50.4016459794</LATITUDE>
</POI>
<POI>
<OBJECTID>146</OBJECTID>
<ADDRESS>2606 GRANT ROAD</ADDRESS>
<NAME>MIKE BADHAM PARK - BALL DIAMOND BS #12</NAME>
<LOCATION>MIKE BADHAM PARK</LOCATION>
<TYPE>BALL DIAMOND</TYPE>
<LONGITUDE>-104.610370257</LONGITUDE>
<LATITUDE>50.4025247612</LATITUDE>
</POI>
<POI>
<OBJECTID>147</OBJECTID>
<ADDRESS>2501 GRANT RD</ADDRESS>
<NAME>MIKE BADHAM PARK - OUTDOOR RINK SHELTER</NAME>
<LOCATION>MIKE BADHAM PARK</LOCATION>
<TYPE>OUTDOOR RINK SHELTER</TYPE>
<LONGITUDE>-104.611412946</LONGITUDE>
<LATITUDE>50.4017344803</LATITUDE>
</POI>
<POI>
<OBJECTID>148</OBJECTID>
<ADDRESS>2606 GRANT ROAD</ADDRESS>
<NAME>MIKE BADHAM PARK - OUTDOOR RINK UNBOARDED</NAME>
<LOCATION>MIKE BADHAM PARK</LOCATION>
<TYPE>OUTDOOR RINK UNBOARDED</TYPE>
<LONGITUDE>-104.610701095</LONGITUDE>
<LATITUDE>50.4016430111</LATITUDE>
</POI>
<POI>
<OBJECTID>149</OBJECTID>
<ADDRESS>435 ELPHINSTONE STREET</ADDRESS>
<NAME>PATRICIA PARK  - ATHLETIC FIELD SOCCER ATHLETIC FIELD</NAME>
<LOCATION>PATRICIA PARK</LOCATION>
<TYPE>ATHLETIC FIELD</TYPE>
<LONGITUDE>-104.630476315</LONGITUDE>
<LATITUDE>50.4712393067</LATITUDE>
</POI>
<POI>
<OBJECTID>150</OBJECTID>
<ADDRESS>40 Sheppard St.</ADDRESS>
<NAME>Regina Huda - Public Elementary School</NAME>
<LOCATION>Regina Huda - Public Elementary School</LOCATION>
<TYPE>Public Elementary School</TYPE>
<LONGITUDE>-104.624459566</LONGITUDE>
<LATITUDE>50.4809461711</LATITUDE>
</POI>
<POI>
<OBJECTID>151</OBJECTID>
<ADDRESS>2202 8th Ave. N.</ADDRESS>
<NAME>Harvest City Christian - Public Elementary School</NAME>
<LOCATION>Harvest City Christian - Public Elementary School</LOCATION>
<TYPE>Public Elementary School</TYPE>
<LONGITUDE>-104.612331833</LONGITUDE>
<LATITUDE>50.4826135754</LATITUDE>
</POI>
<POI>
<OBJECTID>152</OBJECTID>
<ADDRESS>390 DALGLIESH DR</ADDRESS>
<NAME>HENRY JANZEN SOCCER - ATHLETIC FIELD SOCCER ATHLETIC FIELD</NAME>
<LOCATION>HENRY JANZEN SOCCER</LOCATION>
<TYPE>ATHLETIC FIELD</TYPE>
<LONGITUDE>-104.656014979</LONGITUDE>
<LATITUDE>50.4904489525</LATITUDE>
</POI>
<POI>
<OBJECTID>153</OBJECTID>
<ADDRESS>107 ALBERT ST.</ADDRESS>
<NAME>REGENT PLACE BRANCH LIBRARY</NAME>
<LOCATION>REGENT PLACE BRANCH LIBRARY</LOCATION>
<TYPE>Library</TYPE>
<LONGITUDE>-104.61732358</LONGITUDE>
<LATITUDE>50.4766849417</LATITUDE>
</POI>
<POI>
<OBJECTID>154</OBJECTID>
<ADDRESS>4055 15TH AVENUE</ADDRESS>
<NAME>LES SHERMAN PARK NORTH - BALL DIAMOND BS #152</NAME>
<LOCATION>LES SHERMAN PARK NORTH</LOCATION>
<TYPE>BALL DIAMOND</TYPE>
<LONGITUDE>-104.640392541</LONGITUDE>
<LATITUDE>50.4421372876</LATITUDE>
</POI>
<POI>
<OBJECTID>155</OBJECTID>
<ADDRESS>4055 15TH AVENUE</ADDRESS>
<NAME>LES SHERMAN PARK NORTH - BALL DIAMOND BS #153</NAME>
<LOCATION>LES SHERMAN PARK NORTH</LOCATION>
<TYPE>BALL DIAMOND</TYPE>
<LONGITUDE>-104.638971471</LONGITUDE>
<LATITUDE>50.4412597006</LATITUDE>
</POI>
<POI>
<OBJECTID>156</OBJECTID>
<ADDRESS>35 GROOME AVENUE</ADDRESS>
<NAME>ARLINGTON - ATHLETIC FIELD SOCCER ATHLETIC FIELD</NAME>
<LOCATION>ARLINGTON</LOCATION>
<TYPE>ATHLETIC FIELD</TYPE>
<LONGITUDE>-104.627269293</LONGITUDE>
<LATITUDE>50.3993651771</LATITUDE>
</POI>
<POI>
<OBJECTID>157</OBJECTID>
<ADDRESS>2714 E SWAIN PLACE</ADDRESS>
<NAME>JOLLY PARK - BASKETBALL</NAME>
<LOCATION>JOLLY PARK</LOCATION>
<TYPE>BASKETBALL</TYPE>
<LONGITUDE>-104.544915034</LONGITUDE>
<LATITUDE>50.4361926489</LATITUDE>
</POI>
<POI>
<OBJECTID>158</OBJECTID>
<ADDRESS>2714 E SWAIN PL</ADDRESS>
<NAME>JOLLY PARK - PLAYGROUND 2714 E SWAIN PL</NAME>
<LOCATION>JOLLY PARK</LOCATION>
<TYPE>PLAYGROUND</TYPE>
<LONGITUDE>-104.544759767</LONGITUDE>
<LATITUDE>50.4359974616</LATITUDE>
</POI>
<POI>
<OBJECTID>159</OBJECTID>
<ADDRESS>1027 COLLEGE AVENUE</ADDRESS>
<NAME>MILLER HIGH SCHOOL - OUTDOOR TENNIS</NAME>
<LOCATION>MILLER HIGH SCHOOL</LOCATION>
<TYPE>OUTDOOR TENNIS</TYPE>
<LONGITUDE>-104.595689727</LONGITUDE>
<LATITUDE>50.4389234793</LATITUDE>
</POI>
<POI>
<OBJECTID>160</OBJECTID>
<ADDRESS>1027 COLLEGE AVENUE</ADDRESS>
<NAME>MILLER HIGH SCHOOL - BALL DIAMOND</NAME>
<LOCATION>MILLER HIGH SCHOOL</LOCATION>
<TYPE>BALL DIAMOND</TYPE>
<LONGITUDE>-104.597530478</LONGITUDE>
<LATITUDE>50.4390989868</LATITUDE>
</POI>
<POI>
<OBJECTID>161</OBJECTID>
<ADDRESS>1027 COLLEGE AVENUE</ADDRESS>
<NAME>MILLER MULTI - ATHLETIC FIELD MULTI-USE ATHLETIC FIELD</NAME>
<LOCATION>MILLER MULTI</LOCATION>
<TYPE>ATHLETIC FIELD</TYPE>
<LONGITUDE>-104.596893904</LONGITUDE>
<LATITUDE>50.4388100037</LATITUDE>
</POI>
<POI>
<OBJECTID>162</OBJECTID>
<ADDRESS>1027 College Ave.</ADDRESS>
<NAME>Miller Comprehensive High School - Separate High School</NAME>
<LOCATION>Miller Comprehensive High School - Separate High School</LOCATION>
<TYPE>Separate High School</TYPE>
<LONGITUDE>-104.596603077</LONGITUDE>
<LATITUDE>50.4396546209</LATITUDE>
</POI>
<POI>
<OBJECTID>163</OBJECTID>
<ADDRESS>1399 N LAKERIDGE RD</ADDRESS>
<NAME>THERESA STEVENSON PARK - PLAYGROUND 1399 N LAKERIDGE RD</NAME>
<LOCATION>THERESA STEVENSON PARK</LOCATION>
<TYPE>PLAYGROUND</TYPE>
<LONGITUDE>-104.652402383</LONGITUDE>
<LATITUDE>50.5029021896</LATITUDE>
</POI>
<POI>
<OBJECTID>164</OBJECTID>
<ADDRESS>1910 E WAGMAN DRIVE</ADDRESS>
<NAME>WILFRED WALKER MULTI - ATHLETIC FIELD MULTI-USE ATHLETIC FIELD</NAME>
<LOCATION>WILFRED WALKER MULTI</LOCATION>
<TYPE>ATHLETIC FIELD</TYPE>
<LONGITUDE>-104.555051079</LONGITUDE>
<LATITUDE>50.4398491754</LATITUDE>
</POI>
<POI>
<OBJECTID>165</OBJECTID>
<ADDRESS>1910 E WAGMAN DRIVE</ADDRESS>
<NAME>W. WALKER PARK - OUTDOOR RINK UNBOARDED</NAME>
<LOCATION>W. WALKER PARK</LOCATION>
<TYPE>OUTDOOR RINK UNBOARDED</TYPE>
<LONGITUDE>-104.555841666</LONGITUDE>
<LATITUDE>50.4402795356</LATITUDE>
</POI>
<POI>
<OBJECTID>166</OBJECTID>
<ADDRESS>1910 E WAGMAN DR</ADDRESS>
<NAME>WILFRED WALKER SCHOOL - OUTDOOR RINK SHELTER</NAME>
<LOCATION>WILFRED WALKER SCHOOL</LOCATION>
<TYPE>OUTDOOR RINK SHELTER</TYPE>
<LONGITUDE>-104.556047566</LONGITUDE>
<LATITUDE>50.4404283999</LATITUDE>
</POI>
<POI>
<OBJECTID>167</OBJECTID>
<ADDRESS>61 PLAINSVIEW DRIVE</ADDRESS>
<NAME>PLAINSVIEW PARK - ATHLETIC FIELD SOCCER ATHLETIC FIELD</NAME>
<LOCATION>PLAINSVIEW PARK</LOCATION>
<TYPE>ATHLETIC FIELD</TYPE>
<LONGITUDE>-104.621688153</LONGITUDE>
<LATITUDE>50.398401831</LATITUDE>
</POI>
<POI>
<OBJECTID>168</OBJECTID>
<ADDRESS>61 PLAINSVIEW DR</ADDRESS>
<NAME>PLAINSVIEW PARK - PLAYGROUND 61 PLAINSVIEW DR</NAME>
<LOCATION>PLAINSVIEW PARK</LOCATION>
<TYPE>PLAYGROUND</TYPE>
<LONGITUDE>-104.622101612</LONGITUDE>
<LATITUDE>50.3987801397</LATITUDE>
</POI>
<POI>
<OBJECTID>169</OBJECTID>
<ADDRESS>310 UPLAND DRIVE</ADDRESS>
<NAME>ST. GREGORY MULTI - ATHLETIC FIELD MULTI-USE ATHLETIC FIELD</NAME>
<LOCATION>ST. GREGORY MULTI</LOCATION>
<TYPE>ATHLETIC FIELD</TYPE>
<LONGITUDE>-104.611296156</LONGITUDE>
<LATITUDE>50.4932191758</LATITUDE>
</POI>
<POI>
<OBJECTID>170</OBJECTID>
<ADDRESS>310 UPLAND DR</ADDRESS>
<NAME>ST. GREGORY PARK - PLAYGROUND 310 UPLAND DR</NAME>
<LOCATION>ST. GREGORY PARK</LOCATION>
<TYPE>PLAYGROUND</TYPE>
<LONGITUDE>-104.610260055</LONGITUDE>
<LATITUDE>50.4931444917</LATITUDE>
</POI>
<POI>
<OBJECTID>171</OBJECTID>
<ADDRESS>310 UPLAND DRIVE</ADDRESS>
<NAME>ST. GREGORY PARK - BALL DIAMOND BS #257</NAME>
<LOCATION>ST. GREGORY PARK</LOCATION>
<TYPE>BALL DIAMOND</TYPE>
<LONGITUDE>-104.611958318</LONGITUDE>
<LATITUDE>50.4922141346</LATITUDE>
</POI>
<POI>
<OBJECTID>172</OBJECTID>
<ADDRESS>1770 9th Ave N</ADDRESS>
<NAME>Fire Hall No. 2</NAME>
<LOCATION>WILLIAM MOFFAT Fire Hall</LOCATION>
<TYPE>Fire</TYPE>
<LONGITUDE>-104.605753674</LONGITUDE>
<LATITUDE>50.4846930747</LATITUDE>
</POI>
<POI>
<OBJECTID>173</OBJECTID>
<ADDRESS>5382 2ND AVE N</ADDRESS>
<NAME>KEN JENKINS SCHOOL - OUTDOOR RINK SHELTER</NAME>
<LOCATION>KEN JENKINS SCHOOL</LOCATION>
<TYPE>OUTDOOR RINK SHELTER</TYPE>
<LONGITUDE>-104.657125949</LONGITUDE>
<LATITUDE>50.4732784676</LATITUDE>
</POI>
<POI>
<OBJECTID>174</OBJECTID>
<ADDRESS>5382 2ND AVE N</ADDRESS>
<NAME>KEN JENKINS SCHOOL - PLAYGROUND 5382 2ND AVE N</NAME>
<LOCATION>KEN JENKINS SCHOOL</LOCATION>
<TYPE>PLAYGROUND</TYPE>
<LONGITUDE>-104.657753256</LONGITUDE>
<LATITUDE>50.4728852608</LATITUDE>
</POI>
<POI>
<OBJECTID>175</OBJECTID>
<ADDRESS>5382 2ND AVENUE N</ADDRESS>
<NAME>KEN JENKINS SCHOOL - BASKETBALL</NAME>
<LOCATION>KEN JENKINS SCHOOL</LOCATION>
<TYPE>BASKETBALL</TYPE>
<LONGITUDE>-104.657690634</LONGITUDE>
<LATITUDE>50.4728004962</LATITUDE>
</POI>
<POI>
<OBJECTID>176</OBJECTID>
<ADDRESS>5382 2ND AVENUE N</ADDRESS>
<NAME>KEN JENKINS PARK - OUTDOOR RINK UNBOARDED</NAME>
<LOCATION>KEN JENKINS PARK</LOCATION>
<TYPE>OUTDOOR RINK UNBOARDED</TYPE>
<LONGITUDE>-104.657529233</LONGITUDE>
<LATITUDE>50.4733881503</LATITUDE>
</POI>
<POI>
<OBJECTID>177</OBJECTID>
<ADDRESS>222 SUNSET DRIVE</ADDRESS>
<NAME>REALTORS PARK - OUTDOOR TENNIS</NAME>
<LOCATION>REALTORS PARK</LOCATION>
<TYPE>OUTDOOR TENNIS</TYPE>
<LONGITUDE>-104.633314517</LONGITUDE>
<LATITUDE>50.4096820648</LATITUDE>
</POI>
<POI>
<OBJECTID>178</OBJECTID>
<ADDRESS>222 SUNSET DR.</ADDRESS>
<NAME>OPTIMIST - ARENA</NAME>
<LOCATION>OPTIMIST</LOCATION>
<TYPE>ARENA</TYPE>
<LONGITUDE>-104.633373825</LONGITUDE>
<LATITUDE>50.4091446795</LATITUDE>
</POI>
<POI>
<OBJECTID>179</OBJECTID>
<ADDRESS>222 SUNSET DRIVE</ADDRESS>
<NAME>REALTORS WEST SOCCER - ATHLETIC FIELD SOCCER ATHLETIC FIELD</NAME>
<LOCATION>REALTORS WEST SOCCER</LOCATION>
<TYPE>ATHLETIC FIELD</TYPE>
<LONGITUDE>-104.634189892</LONGITUDE>
<LATITUDE>50.4100226396</LATITUDE>
</POI>
<POI>
<OBJECTID>180</OBJECTID>
<ADDRESS>1301 PARKER AVENUE</ADDRESS>
<NAME>QU&apos;APPELLE SOCCER - ATHLETIC FIELD SOCCER ATHLETIC FIELD</NAME>
<LOCATION>QU&apos;APPELLE SOCCER</LOCATION>
<TYPE>ATHLETIC FIELD</TYPE>
<LONGITUDE>-104.600276242</LONGITUDE>
<LATITUDE>50.412646512</LATITUDE>
</POI>
<POI>
<OBJECTID>181</OBJECTID>
<ADDRESS>5657 ROCHDALE BOULEVARD</ADDRESS>
<NAME>LAKERIDGE SPORTS PARK/RIFFEL MULTI - ATHLETIC FIELD MULTI-USE ATHLETIC FIELD</NAME>
<LOCATION>LAKERIDGE SPORTS PARK/RIFFEL MULTI</LOCATION>
<TYPE>ATHLETIC FIELD</TYPE>
<LONGITUDE>-104.661014576</LONGITUDE>
<LATITUDE>50.4943537932</LATITUDE>
</POI>
<POI>
<OBJECTID>182</OBJECTID>
<ADDRESS>5657 ROCHDALE BOULEVARD</ADDRESS>
<NAME>LAKERIDGE SPORTS PARK/RIFFEL - BALL DIAMOND BS #214</NAME>
<LOCATION>LAKERIDGE SPORTS PARK/RIFFEL</LOCATION>
<TYPE>BALL DIAMOND</TYPE>
<LONGITUDE>-104.660600458</LONGITUDE>
<LATITUDE>50.4952232167</LATITUDE>
</POI>
<POI>
<OBJECTID>183</OBJECTID>
<ADDRESS>220 CAMBRIDGE AVE</ADDRESS>
<NAME>MILFORD PARK - PLAYGROUND 220 CAMBRIDGE AVE</NAME>
<LOCATION>MILFORD PARK</LOCATION>
<TYPE>PLAYGROUND</TYPE>
<LONGITUDE>-104.551423712</LONGITUDE>
<LATITUDE>50.4510214994</LATITUDE>
</POI>
<POI>
<OBJECTID>184</OBJECTID>
<ADDRESS>480 RINK AVE</ADDRESS>
<NAME>W.H. FORD SCHOOL - PLAYGROUND 480 RINK AVE</NAME>
<LOCATION>W.H. FORD SCHOOL</LOCATION>
<TYPE>PLAYGROUND</TYPE>
<LONGITUDE>-104.669901766</LONGITUDE>
<LATITUDE>50.4881228903</LATITUDE>
</POI>
<POI>
<OBJECTID>185</OBJECTID>
<ADDRESS>480 Rink Ave.</ADDRESS>
<NAME>W. H. Ford - Public Elementary School</NAME>
<LOCATION>W. H. Ford - Public Elementary School</LOCATION>
<TYPE>Public Elementary School</TYPE>
<LONGITUDE>-104.669427754</LONGITUDE>
<LATITUDE>50.4885697331</LATITUDE>
</POI>
<POI>
<OBJECTID>186</OBJECTID>
<ADDRESS>129 BROTHERTON AVENUE</ADDRESS>
<NAME>DR. FERGUSON PARK - OUTDOOR RINK UNBOARDED</NAME>
<LOCATION>DR. FERGUSON PARK</LOCATION>
<TYPE>OUTDOOR RINK UNBOARDED</TYPE>
<LONGITUDE>-104.55561756</LONGITUDE>
<LATITUDE>50.4520739188</LATITUDE>
</POI>
<POI>
<OBJECTID>187</OBJECTID>
<ADDRESS>117 BROTHERTON AVE</ADDRESS>
<NAME>DR. GEORGE FERGUSON SCHOOL - OUTDOOR RINK SHELTER</NAME>
<LOCATION>DR. GEORGE FERGUSON SCHOOL</LOCATION>
<TYPE>OUTDOOR RINK SHELTER</TYPE>
<LONGITUDE>-104.555565797</LONGITUDE>
<LATITUDE>50.4522043554</LATITUDE>
</POI>
<POI>
<OBJECTID>188</OBJECTID>
<ADDRESS>129 BROTHERTON AVENUE</ADDRESS>
<NAME>DR. FERGUSON PARK - BALL DIAMOND BS #65</NAME>
<LOCATION>DR. FERGUSON PARK</LOCATION>
<TYPE>BALL DIAMOND</TYPE>
<LONGITUDE>-104.555042996</LONGITUDE>
<LATITUDE>50.4517375827</LATITUDE>
</POI>
<POI>
<OBJECTID>189</OBJECTID>
<ADDRESS>129 BROTHERTON AVENUE</ADDRESS>
<NAME>DR. FERGUSON PARK - BASKETBALL</NAME>
<LOCATION>DR. FERGUSON PARK</LOCATION>
<TYPE>BASKETBALL</TYPE>
<LONGITUDE>-104.555903857</LONGITUDE>
<LATITUDE>50.4521456815</LATITUDE>
</POI>
<POI>
<OBJECTID>190</OBJECTID>
<ADDRESS>3507 ARBOR GROVE DRIVE</ADDRESS>
<NAME>WOODLAND GROVE PARK - BASKETBALL</NAME>
<LOCATION>WOODLAND GROVE PARK</LOCATION>
<TYPE>BASKETBALL</TYPE>
<LONGITUDE>-104.530496401</LONGITUDE>
<LATITUDE>50.4236974939</LATITUDE>
</POI>
<POI>
<OBJECTID>191</OBJECTID>
<ADDRESS>3507 ARBOR GROVE DR</ADDRESS>
<NAME>WOODLAND GROVE PARK - PLAYGROUND 3507 ARBOR GROVE DR</NAME>
<LOCATION>WOODLAND GROVE PARK</LOCATION>
<TYPE>PLAYGROUND</TYPE>
<LONGITUDE>-104.530269235</LONGITUDE>
<LATITUDE>50.4237576748</LATITUDE>
</POI>
<POI>
<OBJECTID>192</OBJECTID>
<ADDRESS>1197 PARK STREET</ADDRESS>
<NAME>ROTHWELL FIELDS - BALL DIAMOND BS #99 or 100 or 101</NAME>
<LOCATION>ROTHWELL FIELDS</LOCATION>
<TYPE>BALL DIAMOND</TYPE>
<LONGITUDE>-104.566999938</LONGITUDE>
<LATITUDE>50.4602741878</LATITUDE>
</POI>
<POI>
<OBJECTID>193</OBJECTID>
<ADDRESS>216 HASTINGS CRES</ADDRESS>
<NAME>HASTINGS PARK - PLAYGROUND 216 HASTINGS CRES</NAME>
<LOCATION>HASTINGS PARK</LOCATION>
<TYPE>PLAYGROUND</TYPE>
<LONGITUDE>-104.67355593</LONGITUDE>
<LATITUDE>50.4820862623</LATITUDE>
</POI>
<POI>
<OBJECTID>194</OBJECTID>
<ADDRESS>15 STOREY CRESCENT</ADDRESS>
<NAME>STOREY PARK - BALL DIAMOND BS #213</NAME>
<LOCATION>STOREY PARK</LOCATION>
<TYPE>BALL DIAMOND</TYPE>
<LONGITUDE>-104.669049513</LONGITUDE>
<LATITUDE>50.4864895029</LATITUDE>
</POI>
<POI>
<OBJECTID>195</OBJECTID>
<ADDRESS>5401 SHERWOOD DRIVE</ADDRESS>
<NAME>TENNIS COURT PARK - OUTDOOR TENNIS</NAME>
<LOCATION>TENNIS COURT PARK</LOCATION>
<TYPE>OUTDOOR TENNIS</TYPE>
<LONGITUDE>-104.658742742</LONGITUDE>
<LATITUDE>50.4766595937</LATITUDE>
</POI>
<POI>
<OBJECTID>196</OBJECTID>
<ADDRESS>4710 CASTLE RD</ADDRESS>
<NAME>ST. MATTHEW SCHOOL - PLAYGROUND 4710 CASTLE RD</NAME>
<LOCATION>ST. MATTHEW SCHOOL</LOCATION>
<TYPE>PLAYGROUND</TYPE>
<LONGITUDE>-104.604824476</LONGITUDE>
<LATITUDE>50.4046517098</LATITUDE>
</POI>
<POI>
<OBJECTID>197</OBJECTID>
<ADDRESS>4710 Castle Rd.</ADDRESS>
<NAME>St. Matthew - Separate Elementary School</NAME>
<LOCATION>St. Matthew - Separate Elementary School</LOCATION>
<TYPE>Separate Elementary School</TYPE>
<LONGITUDE>-104.604557158</LONGITUDE>
<LATITUDE>50.4044871818</LATITUDE>
</POI>
<POI>
<OBJECTID>198</OBJECTID>
<ADDRESS>2343 EDGAR STREET</ADDRESS>
<NAME>ST. AUGUSTINE SCHOOL - BALL DIAMOND BS #79</NAME>
<LOCATION>ST. AUGUSTINE SCHOOL</LOCATION>
<TYPE>BALL DIAMOND</TYPE>
<LONGITUDE>-104.585969401</LONGITUDE>
<LATITUDE>50.4414753731</LATITUDE>
</POI>
<POI>
<OBJECTID>199</OBJECTID>
<ADDRESS>2343 EDGAR ST</ADDRESS>
<NAME>ST. AUGUSTINE SCHOOL/JEAN VANIER INSTITUTE - PLAYGROUND 2343 EDGAR ST</NAME>
<LOCATION>ST. AUGUSTINE SCHOOL/JEAN VANIER INSTITUTE</LOCATION>
<TYPE>PLAYGROUND</TYPE>
<LONGITUDE>-104.586703228</LONGITUDE>
<LATITUDE>50.4419471677</LATITUDE>
</POI>
<POI>
<OBJECTID>200</OBJECTID>
<ADDRESS>2343 Edgar St.</ADDRESS>
<NAME>St. Augustine - Separate Elementary School</NAME>
<LOCATION>St. Augustine - Separate Elementary School</LOCATION>
<TYPE>Separate Elementary School</TYPE>
<LONGITUDE>-104.587363801</LONGITUDE>
<LATITUDE>50.4418271496</LATITUDE>
</POI>
<POI>
<OBJECTID>201</OBJECTID>
<ADDRESS>425 15th Ave</ADDRESS>
<NAME>Jean Vanier - Separate Elementary School</NAME>
<LOCATION>Jean Vanier - Separate Elementary School</LOCATION>
<TYPE>Separate Elementary School</TYPE>
<LONGITUDE>-104.58648235</LONGITUDE>
<LATITUDE>50.4417833237</LATITUDE>
</POI>
<POI>
<OBJECTID>202</OBJECTID>
<ADDRESS>1601 E. DEWDNEY AVE.</ADDRESS>
<NAME>GLEN ELM BRANCH LIBRARY</NAME>
<LOCATION>GLEN ELM BRANCH LIBRARY</LOCATION>
<TYPE>Library</TYPE>
<LONGITUDE>-104.560206582</LONGITUDE>
<LATITUDE>50.4546107761</LATITUDE>
</POI>
<POI>
<OBJECTID>203</OBJECTID>
<ADDRESS>3100 20TH AVENUE</ADDRESS>
<NAME>LAKEVIEW SCHOOL SE - BALL DIAMOND BS #17</NAME>
<LOCATION>LAKEVIEW SCHOOL SE</LOCATION>
<TYPE>BALL DIAMOND</TYPE>
<LONGITUDE>-104.625627272</LONGITUDE>
<LATITUDE>50.4319128424</LATITUDE>
</POI>
<POI>
<OBJECTID>204</OBJECTID>
<ADDRESS>3100 20TH AVENUE</ADDRESS>
<NAME>LAKEVIEW SCHOOL - ATHLETIC FIELD SOCCER ATHLETIC FIELD</NAME>
<LOCATION>LAKEVIEW SCHOOL</LOCATION>
<TYPE>ATHLETIC FIELD</TYPE>
<LONGITUDE>-104.626031803</LONGITUDE>
<LATITUDE>50.4321012479</LATITUDE>
</POI>
<POI>
<OBJECTID>205</OBJECTID>
<ADDRESS>3100 20TH AVENUE</ADDRESS>
<NAME>LAKEVIEW SCHOOL SW - BALL DIAMOND BS #16</NAME>
<LOCATION>LAKEVIEW SCHOOL SW</LOCATION>
<TYPE>BALL DIAMOND</TYPE>
<LONGITUDE>-104.626501833</LONGITUDE>
<LATITUDE>50.4319128594</LATITUDE>
</POI>
<POI>
<OBJECTID>206</OBJECTID>
<ADDRESS>3100 20TH AVENUE</ADDRESS>
<NAME>LAKEVIEW SCHOOL - BASKETBALL</NAME>
<LOCATION>LAKEVIEW SCHOOL</LOCATION>
<TYPE>BASKETBALL</TYPE>
<LONGITUDE>-104.62650607</LONGITUDE>
<LATITUDE>50.4327208379</LATITUDE>
</POI>
<POI>
<OBJECTID>207</OBJECTID>
<ADDRESS>3100 20TH AVE</ADDRESS>
<NAME>LAKEVIEW SCHOOL - PLAYGROUND 3100 20TH AVE</NAME>
<LOCATION>LAKEVIEW SCHOOL</LOCATION>
<TYPE>PLAYGROUND</TYPE>
<LONGITUDE>-104.625641281</LONGITUDE>
<LATITUDE>50.4324615545</LATITUDE>
</POI>
<POI>
<OBJECTID>208</OBJECTID>
<ADDRESS>3100 20th Ave.</ADDRESS>
<NAME>Lakeview - Public Elementary School</NAME>
<LOCATION>Lakeview - Public Elementary School</LOCATION>
<TYPE>Public Elementary School</TYPE>
<LONGITUDE>-104.626042708</LONGITUDE>
<LATITUDE>50.4323745008</LATITUDE>
</POI>
<POI>
<OBJECTID>209</OBJECTID>
<ADDRESS>140 GREENWOOD CRES</ADDRESS>
<NAME>ST. JOSAPHAT SCHOOL S - PLAYGROUND 140 GREENWOOD CRES</NAME>
<LOCATION>ST. JOSAPHAT SCHOOL S</LOCATION>
<TYPE>PLAYGROUND</TYPE>
<LONGITUDE>-104.680665381</LONGITUDE>
<LATITUDE>50.4756402414</LATITUDE>
</POI>
<POI>
<OBJECTID>210</OBJECTID>
<ADDRESS>140 GREENWOOD CRESCENT</ADDRESS>
<NAME>ST. JOSAPHAT SCHOOL PARK - BASKETBALL</NAME>
<LOCATION>ST. JOSAPHAT SCHOOL PARK</LOCATION>
<TYPE>BASKETBALL</TYPE>
<LONGITUDE>-104.680551996</LONGITUDE>
<LATITUDE>50.4761018428</LATITUDE>
</POI>
<POI>
<OBJECTID>211</OBJECTID>
<ADDRESS>140 GREENWOOD CRESCENT</ADDRESS>
<NAME>ST. JOSAPHAT SCHOOL SW - BALL DIAMOND BS #208</NAME>
<LOCATION>ST. JOSAPHAT SCHOOL SW</LOCATION>
<TYPE>BALL DIAMOND</TYPE>
<LONGITUDE>-104.681725959</LONGITUDE>
<LATITUDE>50.4756592243</LATITUDE>
</POI>
<POI>
<OBJECTID>212</OBJECTID>
<ADDRESS>140 GREENWOOD CRES</ADDRESS>
<NAME>ST. JOSAPHAT SCHOOL N - PLAYGROUND 140 GREENWOOD CRES</NAME>
<LOCATION>ST. JOSAPHAT SCHOOL N</LOCATION>
<TYPE>PLAYGROUND</TYPE>
<LONGITUDE>-104.680632768</LONGITUDE>
<LATITUDE>50.4762830785</LATITUDE>
</POI>
<POI>
<OBJECTID>213</OBJECTID>
<ADDRESS>140 Greenwood Cr.</ADDRESS>
<NAME>St. Josaphat - Separate Elementary School</NAME>
<LOCATION>St. Josaphat - Separate Elementary School</LOCATION>
<TYPE>Separate Elementary School</TYPE>
<LONGITUDE>-104.680676079</LONGITUDE>
<LATITUDE>50.4758964299</LATITUDE>
</POI>
<POI>
<OBJECTID>214</OBJECTID>
<ADDRESS>1250 DOVER AVENUE</ADDRESS>
<NAME>DOVER PARK - BALL DIAMOND</NAME>
<LOCATION>DOVER PARK</LOCATION>
<TYPE>BALL DIAMOND</TYPE>
<LONGITUDE>-104.597581632</LONGITUDE>
<LATITUDE>50.4828908029</LATITUDE>
</POI>
<POI>
<OBJECTID>215</OBJECTID>
<ADDRESS>1250 DOVER AVENUE</ADDRESS>
<NAME>DOVER PARK - BALL DIAMOND</NAME>
<LOCATION>DOVER PARK</LOCATION>
<TYPE>BALL DIAMOND</TYPE>
<LONGITUDE>-104.598566934</LONGITUDE>
<LATITUDE>50.4829300631</LATITUDE>
</POI>
<POI>
<OBJECTID>216</OBJECTID>
<ADDRESS>303 Rink Ave</ADDRESS>
<NAME>Fire Hall No. 6</NAME>
<LOCATION>OMAR DIXON Fire Hall</LOCATION>
<TYPE>Fire</TYPE>
<LONGITUDE>-104.661143244</LONGITUDE>
<LATITUDE>50.4878466687</LATITUDE>
</POI>
<POI>
<OBJECTID>217</OBJECTID>
<ADDRESS>20 HIND STREET</ADDRESS>
<NAME>HIND PARK - OUTDOOR TENNIS</NAME>
<LOCATION>HIND PARK</LOCATION>
<TYPE>OUTDOOR TENNIS</TYPE>
<LONGITUDE>-104.68076815</LONGITUDE>
<LATITUDE>50.4859185326</LATITUDE>
</POI>
<POI>
<OBJECTID>218</OBJECTID>
<ADDRESS>20 HIND STREET</ADDRESS>
<NAME>HIND PARK - OUTDOOR RINK UNBOARDED</NAME>
<LOCATION>HIND PARK</LOCATION>
<TYPE>OUTDOOR RINK UNBOARDED</TYPE>
<LONGITUDE>-104.680761735</LONGITUDE>
<LATITUDE>50.4858903159</LATITUDE>
</POI>
<POI>
<OBJECTID>219</OBJECTID>
<ADDRESS>20 HIND ST</ADDRESS>
<NAME>HIND PARK - PLAYGROUND 20 HIND ST</NAME>
<LOCATION>HIND PARK</LOCATION>
<TYPE>PLAYGROUND</TYPE>
<LONGITUDE>-104.681149046</LONGITUDE>
<LATITUDE>50.4863770849</LATITUDE>
</POI>
<POI>
<OBJECTID>220</OBJECTID>
<ADDRESS>840 ATHOL ST</ADDRESS>
<NAME>KITCHNER SCHOOL - PLAYGROUND 840 ATHOL ST</NAME>
<LOCATION>KITCHNER SCHOOL</LOCATION>
<TYPE>PLAYGROUND</TYPE>
<LONGITUDE>-104.629066557</LONGITUDE>
<LATITUDE>50.4659317059</LATITUDE>
</POI>
<POI>
<OBJECTID>221</OBJECTID>
<ADDRESS>840 ATHOL STREET</ADDRESS>
<NAME>KITCHNER SCHOOL - BASKETBALL</NAME>
<LOCATION>KITCHNER SCHOOL</LOCATION>
<TYPE>BASKETBALL</TYPE>
<LONGITUDE>-104.629243171</LONGITUDE>
<LATITUDE>50.465126454</LATITUDE>
</POI>
<POI>
<OBJECTID>222</OBJECTID>
<ADDRESS>840 ATHOL STREET</ADDRESS>
<NAME>KITCHNER SCHOOL - ATHLETIC FIELD SOCCER ATHLETIC FIELD</NAME>
<LOCATION>KITCHNER SCHOOL</LOCATION>
<TYPE>ATHLETIC FIELD</TYPE>
<LONGITUDE>-104.629024053</LONGITUDE>
<LATITUDE>50.4648982688</LATITUDE>
</POI>
<POI>
<OBJECTID>223</OBJECTID>
<ADDRESS>840 ATHOL STREET</ADDRESS>
<NAME>KITCHNER SCHOOL - BALL DIAMOND</NAME>
<LOCATION>KITCHNER SCHOOL</LOCATION>
<TYPE>BALL DIAMOND</TYPE>
<LONGITUDE>-104.628573933</LONGITUDE>
<LATITUDE>50.4647328948</LATITUDE>
</POI>
<POI>
<OBJECTID>224</OBJECTID>
<ADDRESS>840 Athol St.</ADDRESS>
<NAME>Kitchener - Public Elementary School</NAME>
<LOCATION>Kitchener - Public Elementary School</LOCATION>
<TYPE>Public Elementary School</TYPE>
<LONGITUDE>-104.629031053</LONGITUDE>
<LATITUDE>50.4654039665</LATITUDE>
</POI>
<POI>
<OBJECTID>225</OBJECTID>
<ADDRESS>1401 MONTAGUE ST.</ADDRESS>
<NAME>DEWDNEY - OUTDOOR POOL</NAME>
<LOCATION>DEWDNEY</LOCATION>
<TYPE>OUTDOOR POOL</TYPE>
<LONGITUDE>-104.629330781</LONGITUDE>
<LATITUDE>50.4563008774</LATITUDE>
</POI>
<POI>
<OBJECTID>226</OBJECTID>
<ADDRESS>3355 8TH AVE</ADDRESS>
<NAME>DEWDNEY POOL PARK - PLAYGROUND 3355 8TH AVE</NAME>
<LOCATION>DEWDNEY POOL PARK</LOCATION>
<TYPE>PLAYGROUND</TYPE>
<LONGITUDE>-104.628537999</LONGITUDE>
<LATITUDE>50.4560780641</LATITUDE>
</POI>
<POI>
<OBJECTID>227</OBJECTID>
<ADDRESS>40 TREMAINE AVE</ADDRESS>
<NAME>CRAIGIE PARK  - ATHLETIC FIELD SOCCER ATHLETIC FIELD</NAME>
<LOCATION>CRAIGIE PARK</LOCATION>
<TYPE>ATHLETIC FIELD</TYPE>
<LONGITUDE>-104.644772323</LONGITUDE>
<LATITUDE>50.4926390674</LATITUDE>
</POI>
<POI>
<OBJECTID>228</OBJECTID>
<ADDRESS>2124 ELPHINSTONE STREET</ADDRESS>
<NAME>CONNAUGHT SCHOOL - ATHLETIC FIELD SOCCER ATHLETIC FIELD</NAME>
<LOCATION>CONNAUGHT SCHOOL</LOCATION>
<TYPE>ATHLETIC FIELD</TYPE>
<LONGITUDE>-104.631860726</LONGITUDE>
<LATITUDE>50.4443468583</LATITUDE>
</POI>
<POI>
<OBJECTID>229</OBJECTID>
<ADDRESS>2124 ELPHINSTONE ST</ADDRESS>
<NAME>CONNAUGHT SCHOOL - PLAYGROUND 2124 ELPHINSTONE ST</NAME>
<LOCATION>CONNAUGHT SCHOOL</LOCATION>
<TYPE>PLAYGROUND</TYPE>
<LONGITUDE>-104.632325817</LONGITUDE>
<LATITUDE>50.4452699179</LATITUDE>
</POI>
<POI>
<OBJECTID>230</OBJECTID>
<ADDRESS>2124 ELPHINSTONE STREET</ADDRESS>
<NAME>CONNAUGHT SCHOOL - BASKETBALL</NAME>
<LOCATION>CONNAUGHT SCHOOL</LOCATION>
<TYPE>BASKETBALL</TYPE>
<LONGITUDE>-104.632136389</LONGITUDE>
<LATITUDE>50.4446549261</LATITUDE>
</POI>
<POI>
<OBJECTID>231</OBJECTID>
<ADDRESS>2124 ELPHINSTONE STREET</ADDRESS>
<NAME>CONNAUGHT SCHOOL SE - BALL DIAMOND BS #123</NAME>
<LOCATION>CONNAUGHT SCHOOL SE</LOCATION>
<TYPE>BALL DIAMOND</TYPE>
<LONGITUDE>-104.631421072</LONGITUDE>
<LATITUDE>50.4441284559</LATITUDE>
</POI>
<POI>
<OBJECTID>232</OBJECTID>
<ADDRESS>2124 ELPHINSTONE STREET</ADDRESS>
<NAME>CONNAUGHT SCHOOL SW - BALL DIAMOND BS #124</NAME>
<LOCATION>CONNAUGHT SCHOOL SW</LOCATION>
<TYPE>BALL DIAMOND</TYPE>
<LONGITUDE>-104.632353807</LONGITUDE>
<LATITUDE>50.4441155669</LATITUDE>
</POI>
<POI>
<OBJECTID>233</OBJECTID>
<ADDRESS>2124 Elphinstone St.</ADDRESS>
<NAME>Connaught - Public Elementary School</NAME>
<LOCATION>Connaught - Public Elementary School</LOCATION>
<TYPE>Public Elementary School</TYPE>
<LONGITUDE>-104.631793036</LONGITUDE>
<LATITUDE>50.4444812267</LATITUDE>
</POI>
<POI>
<OBJECTID>234</OBJECTID>
<ADDRESS>1132 MCTAVISH STREET</ADDRESS>
<NAME>HERCHMER SCHOOL N - BALL DIAMOND BS #128</NAME>
<LOCATION>HERCHMER SCHOOL N</LOCATION>
<TYPE>BALL DIAMOND</TYPE>
<LONGITUDE>-104.634468575</LONGITUDE>
<LATITUDE>50.4612664633</LATITUDE>
</POI>
<POI>
<OBJECTID>235</OBJECTID>
<ADDRESS>1132 MCTAVISH STREET</ADDRESS>
<NAME>HERCHMER SCHOOL S - BALL DIAMOND BS #133</NAME>
<LOCATION>HERCHMER SCHOOL S</LOCATION>
<TYPE>BALL DIAMOND</TYPE>
<LONGITUDE>-104.634367306</LONGITUDE>
<LATITUDE>50.4600088484</LATITUDE>
</POI>
<POI>
<OBJECTID>236</OBJECTID>
<ADDRESS>1132 MCTAVISH ST</ADDRESS>
<NAME>HERCHMER SCHOOL - PLAYGROUND 1132 MCTAVISH ST</NAME>
<LOCATION>HERCHMER SCHOOL</LOCATION>
<TYPE>PLAYGROUND</TYPE>
<LONGITUDE>-104.635136625</LONGITUDE>
<LATITUDE>50.4608376659</LATITUDE>
</POI>
<POI>
<OBJECTID>237</OBJECTID>
<ADDRESS>1132 MCTAVISH STREET</ADDRESS>
<NAME>HERCHMER SCHOOL - BASKETBALL</NAME>
<LOCATION>HERCHMER SCHOOL</LOCATION>
<TYPE>BASKETBALL</TYPE>
<LONGITUDE>-104.634867558</LONGITUDE>
<LATITUDE>50.4604961905</LATITUDE>
</POI>
<POI>
<OBJECTID>238</OBJECTID>
<ADDRESS>2015 9TH AVE N</ADDRESS>
<NAME>NORTH EAST PARK NE - BALL DIAMOND BS #281 (AKA=REGINA MINOR GIRLS BALL)</NAME>
<LOCATION>NORTH EAST PARK NE</LOCATION>
<TYPE>BALL DIAMOND</TYPE>
<LONGITUDE>-104.607122877</LONGITUDE>
<LATITUDE>50.483944846</LATITUDE>
</POI>
<POI>
<OBJECTID>239</OBJECTID>
<ADDRESS>100 MASSEY RD.</ADDRESS>
<NAME>MASSEY - OUTDOOR POOL</NAME>
<LOCATION>MASSEY</LOCATION>
<TYPE>OUTDOOR POOL</TYPE>
<LONGITUDE>-104.610379113</LONGITUDE>
<LATITUDE>50.4134283024</LATITUDE>
</POI>
<POI>
<OBJECTID>240</OBJECTID>
<ADDRESS>70 MASSEY ROAD</ADDRESS>
<NAME>MASSEY EAST MULTI - ATHLETIC FIELD SOCCER ATHLETIC FIELD</NAME>
<LOCATION>MASSEY EAST MULTI</LOCATION>
<TYPE>ATHLETIC FIELD</TYPE>
<LONGITUDE>-104.61045992</LONGITUDE>
<LATITUDE>50.4146469963</LATITUDE>
</POI>
<POI>
<OBJECTID>241</OBJECTID>
<ADDRESS>70 MASSEY RD.</ADDRESS>
<NAME>MURRAY BALFOUR - ARENA</NAME>
<LOCATION>MURRAY BALFOUR</LOCATION>
<TYPE>ARENA</TYPE>
<LONGITUDE>-104.610667836</LONGITUDE>
<LATITUDE>50.4140436004</LATITUDE>
</POI>
<POI>
<OBJECTID>242</OBJECTID>
<ADDRESS>3910 PRINCE OF WALES DR</ADDRESS>
<NAME>WASCANA CREEK PARK - PLAYGROUND 3910 PRINCE OF WALES DR</NAME>
<LOCATION>WASCANA CREEK PARK</LOCATION>
<TYPE>PLAYGROUND</TYPE>
<LONGITUDE>-104.547400233</LONGITUDE>
<LATITUDE>50.4183614804</LATITUDE>
</POI>
<POI>
<OBJECTID>243</OBJECTID>
<ADDRESS>6215 WHELAN DRIVE</ADDRESS>
<NAME>MACNEILL SCHOOL - ATHLETIC FIELD SOCCER ATHLETIC FIELD</NAME>
<LOCATION>MACNEILL SCHOOL</LOCATION>
<TYPE>ATHLETIC FIELD</TYPE>
<LONGITUDE>-104.669747831</LONGITUDE>
<LATITUDE>50.4978638527</LATITUDE>
</POI>
<POI>
<OBJECTID>244</OBJECTID>
<ADDRESS>6215 WHELAN DRIVE</ADDRESS>
<NAME>MACNEILL SCHOOL - BASKETBALL</NAME>
<LOCATION>MACNEILL SCHOOL</LOCATION>
<TYPE>BASKETBALL</TYPE>
<LONGITUDE>-104.671010262</LONGITUDE>
<LATITUDE>50.498213216</LATITUDE>
</POI>
<POI>
<OBJECTID>245</OBJECTID>
<ADDRESS>6215 WHELAN DRIVE</ADDRESS>
<NAME>MACNEILL SCHOOL - BALL DIAMOND BS #215</NAME>
<LOCATION>MACNEILL SCHOOL</LOCATION>
<TYPE>BALL DIAMOND</TYPE>
<LONGITUDE>-104.670228151</LONGITUDE>
<LATITUDE>50.4979845046</LATITUDE>
</POI>
<POI>
<OBJECTID>246</OBJECTID>
<ADDRESS>6215 Whelan Dr.</ADDRESS>
<NAME>MacNeill - Public Elementary School</NAME>
<LOCATION>MacNeill - Public Elementary School</LOCATION>
<TYPE>Public Elementary School</TYPE>
<LONGITUDE>-104.670330607</LONGITUDE>
<LATITUDE>50.4982373632</LATITUDE>
</POI>
<POI>
<OBJECTID>247</OBJECTID>
<ADDRESS>1127 N. ARNSON ST.</ADDRESS>
<NAME>NORTHWEST LEISURE CENTRE - REC_NBHD FACILITY</NAME>
<LOCATION>NORTHWEST LEISURE CENTRE</LOCATION>
<TYPE>REC_NBHD FACILITY</TYPE>
<LONGITUDE>-104.679641387</LONGITUDE>
<LATITUDE>50.4954587118</LATITUDE>
</POI>
<POI>
<OBJECTID>248</OBJECTID>
<ADDRESS>1127 N. ARNASON RD.</ADDRESS>
<NAME>DOUG WICKENHEISER - ARENA</NAME>
<LOCATION>DOUG WICKENHEISER</LOCATION>
<TYPE>ARENA</TYPE>
<LONGITUDE>-104.678261514</LONGITUDE>
<LATITUDE>50.4953867188</LATITUDE>
</POI>
<POI>
<OBJECTID>249</OBJECTID>
<ADDRESS>1127 N ARNASON ST</ADDRESS>
<NAME>NORTHWEST LEISURE CENTRE - INDOOR POOL</NAME>
<LOCATION>NORTHWEST LEISURE CENTRE</LOCATION>
<TYPE>INDOOR POOL</TYPE>
<LONGITUDE>-104.679568636</LONGITUDE>
<LATITUDE>50.4954738195</LATITUDE>
</POI>
<POI>
<OBJECTID>250</OBJECTID>
<ADDRESS>560 ELPHINSTONE ST.</ADDRESS>
<NAME>WHEAT CITY KINSMEN - ARENA</NAME>
<LOCATION>WHEAT CITY KINSMEN</LOCATION>
<TYPE>ARENA</TYPE>
<LONGITUDE>-104.631976387</LONGITUDE>
<LATITUDE>50.4700505619</LATITUDE>
</POI>
<POI>
<OBJECTID>251</OBJECTID>
<ADDRESS>560 ELPHINSTONE ST</ADDRESS>
<NAME>REGENT POOL PARK - PLAYGROUND 560 ELPHINSTONE ST</NAME>
<LOCATION>REGENT POOL PARK</LOCATION>
<TYPE>PLAYGROUND</TYPE>
<LONGITUDE>-104.633860021</LONGITUDE>
<LATITUDE>50.4702569625</LATITUDE>
</POI>
<POI>
<OBJECTID>252</OBJECTID>
<ADDRESS>3600 MCKINLEY AVE.</ADDRESS>
<NAME>REGENT - OUTDOOR POOL</NAME>
<LOCATION>REGENT</LOCATION>
<TYPE>OUTDOOR POOL</TYPE>
<LONGITUDE>-104.633296308</LONGITUDE>
<LATITUDE>50.4702560601</LATITUDE>
</POI>
<POI>
<OBJECTID>253</OBJECTID>
<ADDRESS>710 GRAHAM RD</ADDRESS>
<NAME>HENRY BRAUN SCHOOL - PLAYGROUND 710 GRAHAM RD</NAME>
<LOCATION>HENRY BRAUN SCHOOL</LOCATION>
<TYPE>PLAYGROUND</TYPE>
<LONGITUDE>-104.53561632</LONGITUDE>
<LATITUDE>50.4623591525</LATITUDE>
</POI>
<POI>
<OBJECTID>254</OBJECTID>
<ADDRESS>710 GRAHAM RD</ADDRESS>
<NAME>HENRY BRAUN PARK NW - BALL DIAMOND BS #113</NAME>
<LOCATION>HENRY BRAUN PARK NW</LOCATION>
<TYPE>BALL DIAMOND</TYPE>
<LONGITUDE>-104.534431706</LONGITUDE>
<LATITUDE>50.4623802649</LATITUDE>
</POI>
<POI>
<OBJECTID>255</OBJECTID>
<ADDRESS>710 GRAHAM RD</ADDRESS>
<NAME>HENRY BRAUN SCHOOL - BASKETBALL</NAME>
<LOCATION>HENRY BRAUN SCHOOL</LOCATION>
<TYPE>BASKETBALL</TYPE>
<LONGITUDE>-104.53437378</LONGITUDE>
<LATITUDE>50.4617497696</LATITUDE>
</POI>
<POI>
<OBJECTID>256</OBJECTID>
<ADDRESS>710 GRAHAM RD</ADDRESS>
<NAME>HENRY BRAUN SCHOOL - PLAYGROUND 710 GRAHAM RD</NAME>
<LOCATION>HENRY BRAUN SCHOOL</LOCATION>
<TYPE>PLAYGROUND</TYPE>
<LONGITUDE>-104.535741034</LONGITUDE>
<LATITUDE>50.4621754475</LATITUDE>
</POI>
<POI>
<OBJECTID>257</OBJECTID>
<ADDRESS>710 Graham Rd.</ADDRESS>
<NAME>Henry Braun - Public Elementary School</NAME>
<LOCATION>Henry Braun - Public Elementary School</LOCATION>
<TYPE>Public Elementary School</TYPE>
<LONGITUDE>-104.534979958</LONGITUDE>
<LATITUDE>50.4619477269</LATITUDE>
</POI>
<POI>
<OBJECTID>258</OBJECTID>
<ADDRESS>3355 6TH AVENUE</ADDRESS>
<NAME>ALBERT SCOTT/SCOTT COLLEGIATE NW - BALL DIAMOND BS #141</NAME>
<LOCATION>ALBERT SCOTT/SCOTT COLLEGIATE NW</LOCATION>
<TYPE>BALL DIAMOND</TYPE>
<LONGITUDE>-104.630856048</LONGITUDE>
<LATITUDE>50.4596626373</LATITUDE>
</POI>
<POI>
<OBJECTID>259</OBJECTID>
<ADDRESS>3355 6TH AVENUE</ADDRESS>
<NAME>ALBERT SCOTT/SCOTT COLLEGIATE NE - BALL DIAMOND BS #140</NAME>
<LOCATION>ALBERT SCOTT/SCOTT COLLEGIATE NE</LOCATION>
<TYPE>BALL DIAMOND</TYPE>
<LONGITUDE>-104.628526858</LONGITUDE>
<LATITUDE>50.4596694883</LATITUDE>
</POI>
<POI>
<OBJECTID>260</OBJECTID>
<ADDRESS>25 MICHENER DR</ADDRESS>
<NAME>UNIVERSITY PARK - OUTDOOR RINK SHELTER</NAME>
<LOCATION>UNIVERSITY PARK</LOCATION>
<TYPE>OUTDOOR RINK SHELTER</TYPE>
<LONGITUDE>-104.562760404</LONGITUDE>
<LATITUDE>50.4313008446</LATITUDE>
</POI>
<POI>
<OBJECTID>261</OBJECTID>
<ADDRESS>165 WINDFIELD ROAD</ADDRESS>
<NAME>UNIVERSITY PARK - OUTDOOR RINK UNBOARDED</NAME>
<LOCATION>UNIVERSITY PARK</LOCATION>
<TYPE>OUTDOOR RINK UNBOARDED</TYPE>
<LONGITUDE>-104.561793266</LONGITUDE>
<LATITUDE>50.4314022173</LATITUDE>
</POI>
<POI>
<OBJECTID>262</OBJECTID>
<ADDRESS>25 MICHENER DR</ADDRESS>
<NAME>UNIVERSITY PARK - PLAYGROUND 25 MICHENER DR</NAME>
<LOCATION>UNIVERSITY PARK</LOCATION>
<TYPE>PLAYGROUND</TYPE>
<LONGITUDE>-104.561974235</LONGITUDE>
<LATITUDE>50.4311053277</LATITUDE>
</POI>
<POI>
<OBJECTID>263</OBJECTID>
<ADDRESS>165 WINDFIELD ROAD</ADDRESS>
<NAME>UNIVERSITY PARK - OUTDOOR RINK BOARDED</NAME>
<LOCATION>UNIVERSITY PARK</LOCATION>
<TYPE>OUTDOOR RINK BOARDED</TYPE>
<LONGITUDE>-104.563248884</LONGITUDE>
<LATITUDE>50.4314422035</LATITUDE>
</POI>
<POI>
<OBJECTID>264</OBJECTID>
<ADDRESS>1301 PASQUA ST</ADDRESS>
<NAME>PASQUA/7TH AVE. PARK - PLAYGROUND 1301 PASQUA ST</NAME>
<LOCATION>PASQUA/7TH AVE. PARK</LOCATION>
<TYPE>PLAYGROUND</TYPE>
<LONGITUDE>-104.640142434</LONGITUDE>
<LATITUDE>50.4579945473</LATITUDE>
</POI>
<POI>
<OBJECTID>265</OBJECTID>
<ADDRESS>71 CAMERON ST</ADDRESS>
<NAME>CAMERON PARK - PLAYGROUND 71 CAMERON ST</NAME>
<LOCATION>CAMERON PARK</LOCATION>
<TYPE>PLAYGROUND</TYPE>
<LONGITUDE>-104.624416825</LONGITUDE>
<LATITUDE>50.4113582359</LATITUDE>
</POI>
<POI>
<OBJECTID>266</OBJECTID>
<ADDRESS>20 WEEKES CR.</ADDRESS>
<NAME>UPLANDS COMMUNITY CENTRE - REC_NBHD FACILITY</NAME>
<LOCATION>UPLANDS COMMUNITY CENTRE</LOCATION>
<TYPE>REC_NBHD FACILITY</TYPE>
<LONGITUDE>-104.605048778</LONGITUDE>
<LATITUDE>50.4958359799</LATITUDE>
</POI>
<POI>
<OBJECTID>267</OBJECTID>
<ADDRESS>40 WEEKES CRESCENT</ADDRESS>
<NAME>RUTH PAWSON SCHOOL - ATHLETIC FIELD SOCCER ATHLETIC FIELD</NAME>
<LOCATION>RUTH PAWSON SCHOOL</LOCATION>
<TYPE>ATHLETIC FIELD</TYPE>
<LONGITUDE>-104.605675183</LONGITUDE>
<LATITUDE>50.4967514706</LATITUDE>
</POI>
<POI>
<OBJECTID>268</OBJECTID>
<ADDRESS>40 WEEKES CRESCENT</ADDRESS>
<NAME>RUTH PAWSON SCHOOL - BASKETBALL</NAME>
<LOCATION>RUTH PAWSON SCHOOL</LOCATION>
<TYPE>BASKETBALL</TYPE>
<LONGITUDE>-104.604955397</LONGITUDE>
<LATITUDE>50.4962996216</LATITUDE>
</POI>
<POI>
<OBJECTID>269</OBJECTID>
<ADDRESS>40 WEEKES CRES</ADDRESS>
<NAME>RUTH PAWSON SCHOOL - PLAYGROUND 40 WEEKES CRES</NAME>
<LOCATION>RUTH PAWSON SCHOOL</LOCATION>
<TYPE>PLAYGROUND</TYPE>
<LONGITUDE>-104.604549452</LONGITUDE>
<LATITUDE>50.4956693206</LATITUDE>
</POI>
<POI>
<OBJECTID>270</OBJECTID>
<ADDRESS>40 WEEKES CRES</ADDRESS>
<NAME>RUTH PAWSON SCHOOL - OUTDOOR RINK SHELTER</NAME>
<LOCATION>RUTH PAWSON SCHOOL</LOCATION>
<TYPE>OUTDOOR RINK SHELTER</TYPE>
<LONGITUDE>-104.605140785</LONGITUDE>
<LATITUDE>50.497010061</LATITUDE>
</POI>
<POI>
<OBJECTID>271</OBJECTID>
<ADDRESS>40 Weeks Cr.</ADDRESS>
<NAME>Ruth Pawson - Public Elementary School</NAME>
<LOCATION>Ruth Pawson - Public Elementary School</LOCATION>
<TYPE>Public Elementary School</TYPE>
<LONGITUDE>-104.605260751</LONGITUDE>
<LATITUDE>50.4961323186</LATITUDE>
</POI>
<POI>
<OBJECTID>272</OBJECTID>
<ADDRESS>348 BROAD ST</ADDRESS>
<NAME>HIGHLAND - CURLING CLUB</NAME>
<LOCATION>HIGHLAND</LOCATION>
<TYPE>CURLING CLUB</TYPE>
<LONGITUDE>-104.607207531</LONGITUDE>
<LATITUDE>50.4729742515</LATITUDE>
</POI>
<POI>
<OBJECTID>273</OBJECTID>
<ADDRESS>103 FAIRVIEW ROAD</ADDRESS>
<NAME>M.J. COLDWELL SCHOOL - BALL DIAMOND BS #241</NAME>
<LOCATION>M.J. COLDWELL SCHOOL</LOCATION>
<TYPE>BALL DIAMOND</TYPE>
<LONGITUDE>-104.612380486</LONGITUDE>
<LATITUDE>50.4906227724</LATITUDE>
</POI>
<POI>
<OBJECTID>274</OBJECTID>
<ADDRESS>103 FAIRVIEW ROAD</ADDRESS>
<NAME>M.J. COLDWELL SCHOOL - BASKETBALL</NAME>
<LOCATION>M.J. COLDWELL SCHOOL</LOCATION>
<TYPE>BASKETBALL</TYPE>
<LONGITUDE>-104.611996616</LONGITUDE>
<LATITUDE>50.4907883252</LATITUDE>
</POI>
<POI>
<OBJECTID>275</OBJECTID>
<ADDRESS>103 Fairview Rd.</ADDRESS>
<NAME>M.J. Coldwell - Public Elementary School</NAME>
<LOCATION>M.J. Coldwell - Public Elementary School</LOCATION>
<TYPE>Public Elementary School</TYPE>
<LONGITUDE>-104.611853747</LONGITUDE>
<LATITUDE>50.4908027112</LATITUDE>
</POI>
<POI>
<OBJECTID>276</OBJECTID>
<ADDRESS>1801 MONTREAL ST</ADDRESS>
<NAME>CORE COMMUNITY PARK - PLAYGROUND 1801 MONTREAL ST</NAME>
<LOCATION>CORE COMMUNITY PARK</LOCATION>
<TYPE>PLAYGROUND</TYPE>
<LONGITUDE>-104.598105815</LONGITUDE>
<LATITUDE>50.4500011387</LATITUDE>
</POI>
<POI>
<OBJECTID>277</OBJECTID>
<ADDRESS>1801 MONTREAL ST</ADDRESS>
<NAME>CORE COMMUNITY PARK - BASKETBALL</NAME>
<LOCATION>CORE COMMUNITY PARK</LOCATION>
<TYPE>BASKETBALL</TYPE>
<LONGITUDE>-104.597998989</LONGITUDE>
<LATITUDE>50.450194142</LATITUDE>
</POI>
<POI>
<OBJECTID>278</OBJECTID>
<ADDRESS>4315 COLLEGE AVENUE</ADDRESS>
<NAME>LEWVAN FIELDS/ST. JAMES PARK - BALL DIAMOND BS #164</NAME>
<LOCATION>LEWVAN FIELDS/ST. JAMES PARK</LOCATION>
<TYPE>BALL DIAMOND</TYPE>
<LONGITUDE>-104.642664894</LONGITUDE>
<LATITUDE>50.4406000509</LATITUDE>
</POI>
<POI>
<OBJECTID>279</OBJECTID>
<ADDRESS>84 OAKVIEW DRIVE</ADDRESS>
<NAME>OAKVIEW PARK  - ATHLETIC FIELD SOCCER ATHLETIC FIELD</NAME>
<LOCATION>OAKVIEW PARK</LOCATION>
<TYPE>ATHLETIC FIELD</TYPE>
<LONGITUDE>-104.613665817</LONGITUDE>
<LATITUDE>50.4878570575</LATITUDE>
</POI>
<POI>
<OBJECTID>280</OBJECTID>
<ADDRESS>3303 GRANT ROAD</ADDRESS>
<NAME>COMMUNITY GARDENS BUILDING</NAME>
<LOCATION>Wascana Centre</LOCATION>
<TYPE>Wascana Centre</TYPE>
<LONGITUDE>-104.597578928</LONGITUDE>
<LATITUDE>50.4070213488</LATITUDE>
</POI>
<POI>
<OBJECTID>281</OBJECTID>
<ADDRESS>1069 E 14TH AVENUE</ADDRESS>
<NAME>COCHRANE HIGH SCHOOL - BASKETBALL</NAME>
<LOCATION>COCHRANE HIGH SCHOOL</LOCATION>
<TYPE>BASKETBALL</TYPE>
<LONGITUDE>-104.567202929</LONGITUDE>
<LATITUDE>50.4436361483</LATITUDE>
</POI>
<POI>
<OBJECTID>282</OBJECTID>
<ADDRESS>1069 E. 14th Ave.</ADDRESS>
<NAME>Cochrane High School - Public High School</NAME>
<LOCATION>Cochrane High School - Public High School</LOCATION>
<TYPE>Public High School</TYPE>
<LONGITUDE>-104.568228077</LONGITUDE>
<LATITUDE>50.4429594641</LATITUDE>
</POI>
<POI>
<OBJECTID>283</OBJECTID>
<ADDRESS>335 N GARNET ST</ADDRESS>
<NAME>GLADYS MCDONALD SCHOOL - BASKETBALL</NAME>
<LOCATION>GLADYS MCDONALD SCHOOL</LOCATION>
<TYPE>BASKETBALL</TYPE>
<LONGITUDE>-104.626002147</LONGITUDE>
<LATITUDE>50.4811564448</LATITUDE>
</POI>
<POI>
<OBJECTID>284</OBJECTID>
<ADDRESS>335 N GARNET ST</ADDRESS>
<NAME>GLADYS MCDONALD SCHOOL - PLAYGROUND 335 N GARNET ST</NAME>
<LOCATION>GLADYS MCDONALD SCHOOL</LOCATION>
<TYPE>PLAYGROUND</TYPE>
<LONGITUDE>-104.625882316</LONGITUDE>
<LATITUDE>50.4813337429</LATITUDE>
</POI>
<POI>
<OBJECTID>285</OBJECTID>
<ADDRESS>335 N. Garnet St.</ADDRESS>
<NAME>Gladys McDonald - Public Elementary School</NAME>
<LOCATION>Gladys McDonald - Public Elementary School</LOCATION>
<TYPE>Public Elementary School</TYPE>
<LONGITUDE>-104.625930313</LONGITUDE>
<LATITUDE>50.4809442211</LATITUDE>
</POI>
<POI>
<OBJECTID>286</OBJECTID>
<ADDRESS>2960 WASCANA DRIVE</ADDRESS>
<NAME>WASCANA PLACE ADMINISTRATION BUILDING</NAME>
<LOCATION>Wascana Centre</LOCATION>
<TYPE>Wascana Centre</TYPE>
<LONGITUDE>-104.60673058</LONGITUDE>
<LATITUDE>50.4324843181</LATITUDE>
</POI>
<POI>
<OBJECTID>287</OBJECTID>
<ADDRESS>1399 N LAKERIDGE RD</ADDRESS>
<NAME>THERESA STEVENSON PARK - BALL DIAMOND BS #86</NAME>
<LOCATION>THERESA STEVENSON PARK</LOCATION>
<TYPE>BALL DIAMOND</TYPE>
<LONGITUDE>-104.654435347</LONGITUDE>
<LATITUDE>50.5013978542</LATITUDE>
</POI>
<POI>
<OBJECTID>288</OBJECTID>
<ADDRESS>139 TORONTO STREET</ADDRESS>
<NAME>MCDERMID SCHOOL - ATHLETIC FIELD SOCCER ATHLETIC FIELD</NAME>
<LOCATION>MCDERMID SCHOOL</LOCATION>
<TYPE>ATHLETIC FIELD</TYPE>
<LONGITUDE>-104.597300539</LONGITUDE>
<LATITUDE>50.4766939096</LATITUDE>
</POI>
<POI>
<OBJECTID>289</OBJECTID>
<ADDRESS>139 TORONTO STREET</ADDRESS>
<NAME>MCDERMID SCHOOL - OUTDOOR RINK UNBOARDED</NAME>
<LOCATION>MCDERMID SCHOOL</LOCATION>
<TYPE>OUTDOOR RINK UNBOARDED</TYPE>
<LONGITUDE>-104.59754636</LONGITUDE>
<LATITUDE>50.4767511142</LATITUDE>
</POI>
<POI>
<OBJECTID>290</OBJECTID>
<ADDRESS>139 TORONTO STREET</ADDRESS>
<NAME>MCDERMID SCHOOL - BASKETBALL</NAME>
<LOCATION>MCDERMID SCHOOL</LOCATION>
<TYPE>BASKETBALL</TYPE>
<LONGITUDE>-104.598269783</LONGITUDE>
<LATITUDE>50.4764073993</LATITUDE>
</POI>
<POI>
<OBJECTID>291</OBJECTID>
<ADDRESS>125 TORONTO ST</ADDRESS>
<NAME>MCDERMID SCHOOL - PLAYGROUND 125 TORONTO ST</NAME>
<LOCATION>MCDERMID SCHOOL</LOCATION>
<TYPE>PLAYGROUND</TYPE>
<LONGITUDE>-104.598028811</LONGITUDE>
<LATITUDE>50.4767647026</LATITUDE>
</POI>
<POI>
<OBJECTID>292</OBJECTID>
<ADDRESS>125 TORONTO ST</ADDRESS>
<NAME>MCDERMID SCHOOL - OUTDOOR RINK SHELTER</NAME>
<LOCATION>MCDERMID SCHOOL</LOCATION>
<TYPE>OUTDOOR RINK SHELTER</TYPE>
<LONGITUDE>-104.597622453</LONGITUDE>
<LATITUDE>50.4769057392</LATITUDE>
</POI>
<POI>
<OBJECTID>293</OBJECTID>
<ADDRESS>139 TORONTO STREET</ADDRESS>
<NAME>MCDERMID SCHOOL - BALL DIAMOND BS #250</NAME>
<LOCATION>MCDERMID SCHOOL</LOCATION>
<TYPE>BALL DIAMOND</TYPE>
<LONGITUDE>-104.597049618</LONGITUDE>
<LATITUDE>50.4758267332</LATITUDE>
</POI>
<POI>
<OBJECTID>294</OBJECTID>
<ADDRESS>139 Toronto St.</ADDRESS>
<NAME>McDermid - Public Elementary School</NAME>
<LOCATION>McDermid - Public Elementary School</LOCATION>
<TYPE>Public Elementary School</TYPE>
<LONGITUDE>-104.597723306</LONGITUDE>
<LATITUDE>50.476112275</LATITUDE>
</POI>
<POI>
<OBJECTID>295</OBJECTID>
<ADDRESS>1564 N DEVONSHIRE DR</ADDRESS>
<NAME>EWART PARK - PLAYGROUND 1564 N DEVONSHIRE DR</NAME>
<LOCATION>EWART PARK</LOCATION>
<TYPE>PLAYGROUND</TYPE>
<LONGITUDE>-104.667856842</LONGITUDE>
<LATITUDE>50.504312178</LATITUDE>
</POI>
<POI>
<OBJECTID>296</OBJECTID>
<ADDRESS>2128 DUFFERIN RD</ADDRESS>
<NAME>DAFFODIL PARK - PLAYGROUND 2128 DUFFERIN RD</NAME>
<LOCATION>DAFFODIL PARK</LOCATION>
<TYPE>PLAYGROUND</TYPE>
<LONGITUDE>-104.607291918</LONGITUDE>
<LATITUDE>50.404095097</LATITUDE>
</POI>
<POI>
<OBJECTID>297</OBJECTID>
<ADDRESS>424 UNIVERSITY PARK DRIVE</ADDRESS>
<NAME>GARDINER PARK - OUTDOOR TENNIS</NAME>
<LOCATION>GARDINER PARK</LOCATION>
<TYPE>OUTDOOR TENNIS</TYPE>
<LONGITUDE>-104.553847354</LONGITUDE>
<LATITUDE>50.4375949733</LATITUDE>
</POI>
<POI>
<OBJECTID>298</OBJECTID>
<ADDRESS>424 UNIVERSITY PARK DR</ADDRESS>
<NAME>GARDINER PARK - PLAYGROUND 424 UNIVERSITY PARK DR</NAME>
<LOCATION>GARDINER PARK</LOCATION>
<TYPE>PLAYGROUND</TYPE>
<LONGITUDE>-104.553096266</LONGITUDE>
<LATITUDE>50.4375720991</LATITUDE>
</POI>
<POI>
<OBJECTID>299</OBJECTID>
<ADDRESS>3350 7TH AVENUE</ADDRESS>
<NAME>SCOTT COLLEGIATE - OUTDOOR TENNIS</NAME>
<LOCATION>SCOTT COLLEGIATE</LOCATION>
<TYPE>OUTDOOR TENNIS</TYPE>
<LONGITUDE>-104.630367513</LONGITUDE>
<LATITUDE>50.4585629027</LATITUDE>
</POI>
<POI>
<OBJECTID>300</OBJECTID>
<ADDRESS>1264 ATHOL ST.</ADDRESS>
<NAME>ALBERT SCOTT COMMUNITY CENTRE - REC_NBHD FACILITY</NAME>
<LOCATION>ALBERT SCOTT COMMUNITY CENTRE</LOCATION>
<TYPE>REC_NBHD FACILITY</TYPE>
<LONGITUDE>-104.629044432</LONGITUDE>
<LATITUDE>50.4586474467</LATITUDE>
</POI>
<POI>
<OBJECTID>301</OBJECTID>
<ADDRESS>1264 ATHOL ST</ADDRESS>
<NAME>NORTH CENTRAL COMMUNITY SERVICE CENTRE</NAME>
<LOCATION>NORTH CENTRAL COMMUNITY SERVICE CENTRE</LOCATION>
<TYPE>Police</TYPE>
<LONGITUDE>-104.628602731</LONGITUDE>
<LATITUDE>50.4586230133</LATITUDE>
</POI>
<POI>
<OBJECTID>302</OBJECTID>
<ADDRESS>3350 7th Ave.</ADDRESS>
<NAME>Scott Collegiate - Public High School</NAME>
<LOCATION>Scott Collegiate - Public High School</LOCATION>
<TYPE>Public High School</TYPE>
<LONGITUDE>-104.629574181</LONGITUDE>
<LATITUDE>50.4587334721</LATITUDE>
</POI>
<POI>
<OBJECTID>303</OBJECTID>
<ADDRESS>5310 4TH AVENUE</ADDRESS>
<NAME>ROSEMONT SCHOOL PARK - OUTDOOR RINK BOARDED</NAME>
<LOCATION>ROSEMONT SCHOOL PARK</LOCATION>
<TYPE>OUTDOOR RINK BOARDED</TYPE>
<LONGITUDE>-104.656584149</LONGITUDE>
<LATITUDE>50.4634386343</LATITUDE>
</POI>
<POI>
<OBJECTID>304</OBJECTID>
<ADDRESS>5310 4TH AVENUE</ADDRESS>
<NAME>ROSEMONT SCHOOL PARK - OUTDOOR RINK UNBOARDED</NAME>
<LOCATION>ROSEMONT SCHOOL PARK</LOCATION>
<TYPE>OUTDOOR RINK UNBOARDED</TYPE>
<LONGITUDE>-104.656659071</LONGITUDE>
<LATITUDE>50.4631150778</LATITUDE>
</POI>
<POI>
<OBJECTID>305</OBJECTID>
<ADDRESS>5310 4TH AVENUE</ADDRESS>
<NAME>ROSEMONT SCHOOL PARK - BALL DIAMOND BS #137</NAME>
<LOCATION>ROSEMONT SCHOOL PARK</LOCATION>
<TYPE>BALL DIAMOND</TYPE>
<LONGITUDE>-104.656887814</LONGITUDE>
<LATITUDE>50.4640312244</LATITUDE>
</POI>
<POI>
<OBJECTID>306</OBJECTID>
<ADDRESS>3010 PRINCESS ST</ADDRESS>
<NAME>CAEN PARK - PLAYGROUND 3010 PRINCESS ST</NAME>
<LOCATION>CAEN PARK</LOCATION>
<TYPE>PLAYGROUND</TYPE>
<LONGITUDE>-104.636623571</LONGITUDE>
<LATITUDE>50.431337212</LATITUDE>
</POI>
<POI>
<OBJECTID>307</OBJECTID>
<ADDRESS>6015 MIKKELSON DRIVE</ADDRESS>
<NAME>ST. FRANCIS PARK NE - BALL DIAMOND BS #158</NAME>
<LOCATION>ST. FRANCIS PARK NE</LOCATION>
<TYPE>BALL DIAMOND</TYPE>
<LONGITUDE>-104.666912707</LONGITUDE>
<LATITUDE>50.4647422928</LATITUDE>
</POI>
<POI>
<OBJECTID>308</OBJECTID>
<ADDRESS>6015 MIKKELSON DRIVE</ADDRESS>
<NAME>ST. FRANCIS PARK SE - BALL DIAMOND BS #160</NAME>
<LOCATION>ST. FRANCIS PARK SE</LOCATION>
<TYPE>BALL DIAMOND</TYPE>
<LONGITUDE>-104.667963849</LONGITUDE>
<LATITUDE>50.4640682243</LATITUDE>
</POI>
<POI>
<OBJECTID>309</OBJECTID>
<ADDRESS>6015 MIKKELSON DRIVE</ADDRESS>
<NAME>ST. FRANCIS PARK - OUTDOOR RINK UNBOARDED</NAME>
<LOCATION>ST. FRANCIS PARK</LOCATION>
<TYPE>OUTDOOR RINK UNBOARDED</TYPE>
<LONGITUDE>-104.667206424</LONGITUDE>
<LATITUDE>50.4652250961</LATITUDE>
</POI>
<POI>
<OBJECTID>310</OBJECTID>
<ADDRESS>6015 MIKKELSON DR</ADDRESS>
<NAME>ST. FRANCIS PARK - OUTDOOR RINK SHELTER</NAME>
<LOCATION>ST. FRANCIS PARK</LOCATION>
<TYPE>OUTDOOR RINK SHELTER</TYPE>
<LONGITUDE>-104.666903491</LONGITUDE>
<LATITUDE>50.4653658639</LATITUDE>
</POI>
<POI>
<OBJECTID>311</OBJECTID>
<ADDRESS>6015 MIKKELSON DRIVE</ADDRESS>
<NAME>ST. FRANCIS PARK NW - BALL DIAMOND BS #157</NAME>
<LOCATION>ST. FRANCIS PARK NW</LOCATION>
<TYPE>BALL DIAMOND</TYPE>
<LONGITUDE>-104.668087573</LONGITUDE>
<LATITUDE>50.4648234221</LATITUDE>
</POI>
<POI>
<OBJECTID>312</OBJECTID>
<ADDRESS>1 FIRST NATIONS WAY</ADDRESS>
<NAME>First Nations University of Canada - Regina</NAME>
<LOCATION>First Nations University of Canada - Regina</LOCATION>
<TYPE>Other School</TYPE>
<LONGITUDE>-104.583161873</LONGITUDE>
<LATITUDE>50.4185305527</LATITUDE>
</POI>
<POI>
<OBJECTID>313</OBJECTID>
<ADDRESS>1 FIRST NATIONS WAY</ADDRESS>
<NAME>SIFC BUILDING</NAME>
<LOCATION>University of Regina</LOCATION>
<TYPE>University of Regina</TYPE>
<LONGITUDE>-104.582141362</LONGITUDE>
<LATITUDE>50.419372758</LATITUDE>
</POI>
<POI>
<OBJECTID>314</OBJECTID>
<ADDRESS>3118 14TH AVENUE</ADDRESS>
<NAME>HOLY ROSARY - ATHLETIC FIELD SOCCER ATHLETIC FIELD</NAME>
<LOCATION>HOLY ROSARY</LOCATION>
<TYPE>ATHLETIC FIELD</TYPE>
<LONGITUDE>-104.627544946</LONGITUDE>
<LATITUDE>50.4442894699</LATITUDE>
</POI>
<POI>
<OBJECTID>315</OBJECTID>
<ADDRESS>3118 14TH AVENUE</ADDRESS>
<NAME>HOLY ROSARY PARK - BALL DIAMOND</NAME>
<LOCATION>HOLY ROSARY PARK</LOCATION>
<TYPE>BALL DIAMOND</TYPE>
<LONGITUDE>-104.6279607</LONGITUDE>
<LATITUDE>50.4441376925</LATITUDE>
</POI>
<POI>
<OBJECTID>316</OBJECTID>
<ADDRESS>1500 Royal St.</ADDRESS>
<NAME>Luther High School - 1500 Royal St.</NAME>
<LOCATION>Luther High School - 1500 Royal St.</LOCATION>
<TYPE>Other School</TYPE>
<LONGITUDE>-104.651721356</LONGITUDE>
<LATITUDE>50.453892062</LATITUDE>
</POI>
<POI>
<OBJECTID>317</OBJECTID>
<ADDRESS>5002 MCTAVISH STREET</ADDRESS>
<NAME>NEW ALBERT PARK - ATHLETIC FIELD SOCCER ATHLETIC FIELD</NAME>
<LOCATION>NEW ALBERT PARK</LOCATION>
<TYPE>ATHLETIC FIELD</TYPE>
<LONGITUDE>-104.636055364</LONGITUDE>
<LATITUDE>50.3986339801</LATITUDE>
</POI>
<POI>
<OBJECTID>318</OBJECTID>
<ADDRESS>5002 MCTAVISH ST</ADDRESS>
<NAME>NEW ALBERT PARK - PLAYGROUND 5002 MCTAVISH ST</NAME>
<LOCATION>NEW ALBERT PARK</LOCATION>
<TYPE>PLAYGROUND</TYPE>
<LONGITUDE>-104.634951683</LONGITUDE>
<LATITUDE>50.3984485323</LATITUDE>
</POI>
<POI>
<OBJECTID>319</OBJECTID>
<ADDRESS>342 N HALIFAX STREET</ADDRESS>
<NAME>ST. ANNE PARK - BALL DIAMOND BS #256</NAME>
<LOCATION>ST. ANNE PARK</LOCATION>
<TYPE>BALL DIAMOND</TYPE>
<LONGITUDE>-104.604422542</LONGITUDE>
<LATITUDE>50.4826549503</LATITUDE>
</POI>
<POI>
<OBJECTID>320</OBJECTID>
<ADDRESS>342 N HALIFAX STREET</ADDRESS>
<NAME>ST. ANNE PARK - ATHLETIC FIELD SOCCER ATHLETIC FIELD</NAME>
<LOCATION>ST. ANNE PARK</LOCATION>
<TYPE>ATHLETIC FIELD</TYPE>
<LONGITUDE>-104.605078695</LONGITUDE>
<LATITUDE>50.4829673745</LATITUDE>
</POI>
<POI>
<OBJECTID>321</OBJECTID>
<ADDRESS>1225 E 9TH AVENUE</ADDRESS>
<NAME>GLEN ELM SCHOOL - BASKETBALL</NAME>
<LOCATION>GLEN ELM SCHOOL</LOCATION>
<TYPE>BASKETBALL</TYPE>
<LONGITUDE>-104.565970565</LONGITUDE>
<LATITUDE>50.4528885652</LATITUDE>
</POI>
<POI>
<OBJECTID>322</OBJECTID>
<ADDRESS>1225 E. 9th Ave.</ADDRESS>
<NAME>Glen Elm - Public Elementary School</NAME>
<LOCATION>Glen Elm - Public Elementary School</LOCATION>
<TYPE>Public Elementary School</TYPE>
<LONGITUDE>-104.56567635</LONGITUDE>
<LATITUDE>50.4531902553</LATITUDE>
</POI>
<POI>
<OBJECTID>323</OBJECTID>
<ADDRESS>520 E ASSINIBOINE AVENUE</ADDRESS>
<NAME>PRODUCTION GREENHOUSE</NAME>
<LOCATION>Wascana Centre</LOCATION>
<TYPE>Wascana Centre</TYPE>
<LONGITUDE>-104.5767667</LONGITUDE>
<LATITUDE>50.4253905684</LATITUDE>
</POI>
<POI>
<OBJECTID>324</OBJECTID>
<ADDRESS>520 E ASSINIBOINE AVENUE</ADDRESS>
<NAME>WINTER WATERFOWL DISPLAY BUILDING</NAME>
<LOCATION>Wascana Centre</LOCATION>
<TYPE>Wascana Centre</TYPE>
<LONGITUDE>-104.57728923</LONGITUDE>
<LATITUDE>50.4245591883</LATITUDE>
</POI>
<POI>
<OBJECTID>325</OBJECTID>
<ADDRESS>132 Victoria Ave</ADDRESS>
<NAME>Fire Hall No. 7</NAME>
<LOCATION>LOUIS YANKO Fire Hall</LOCATION>
<TYPE>Fire</TYPE>
<LONGITUDE>-104.583396102</LONGITUDE>
<LATITUDE>50.4475327436</LATITUDE>
</POI>
<POI>
<OBJECTID>326</OBJECTID>
<ADDRESS>2930 E 7TH AVENUE</ADDRESS>
<NAME>HOWELL PARK - OUTDOOR TENNIS</NAME>
<LOCATION>HOWELL PARK</LOCATION>
<TYPE>OUTDOOR TENNIS</TYPE>
<LONGITUDE>-104.54328427</LONGITUDE>
<LATITUDE>50.4593007514</LATITUDE>
</POI>
<POI>
<OBJECTID>327</OBJECTID>
<ADDRESS>1100 MCINTOSH STREET</ADDRESS>
<NAME>MARTIN COLLEGIATE - BALL DIAMOND BS #135</NAME>
<LOCATION>MARTIN COLLEGIATE</LOCATION>
<TYPE>BALL DIAMOND</TYPE>
<LONGITUDE>-104.65638554</LONGITUDE>
<LATITUDE>50.4626744252</LATITUDE>
</POI>
<POI>
<OBJECTID>328</OBJECTID>
<ADDRESS>1100 MCINTOSH STREET</ADDRESS>
<NAME>MARTIN COLLEGIATE SOUTH - ATHLETIC FIELD SOCCER ATHLETIC FIELD</NAME>
<LOCATION>MARTIN COLLEGIATE SOUTH</LOCATION>
<TYPE>ATHLETIC FIELD</TYPE>
<LONGITUDE>-104.656093381</LONGITUDE>
<LATITUDE>50.4615516471</LATITUDE>
</POI>
<POI>
<OBJECTID>329</OBJECTID>
<ADDRESS>1100 MCINTOSH STREET</ADDRESS>
<NAME>MARTIN COLLEGIATE NORTH - ATHLETIC FIELD SOCCER ATHLETIC FIELD</NAME>
<LOCATION>MARTIN COLLEGIATE NORTH</LOCATION>
<TYPE>ATHLETIC FIELD</TYPE>
<LONGITUDE>-104.654460534</LONGITUDE>
<LATITUDE>50.4624762519</LATITUDE>
</POI>
<POI>
<OBJECTID>330</OBJECTID>
<ADDRESS>1100 MCINTOSH STREET</ADDRESS>
<NAME>MARTIN COLLEGIATE - OUTDOOR TENNIS</NAME>
<LOCATION>MARTIN COLLEGIATE</LOCATION>
<TYPE>OUTDOOR TENNIS</TYPE>
<LONGITUDE>-104.654989863</LONGITUDE>
<LATITUDE>50.4619198811</LATITUDE>
</POI>
<POI>
<OBJECTID>331</OBJECTID>
<ADDRESS>1100 McIntosh St.</ADDRESS>
<NAME>Martin Collegiate - Public High School</NAME>
<LOCATION>Martin Collegiate - Public High School</LOCATION>
<TYPE>Public High School</TYPE>
<LONGITUDE>-104.654584538</LONGITUDE>
<LATITUDE>50.4617787619</LATITUDE>
</POI>
<POI>
<OBJECTID>332</OBJECTID>
<ADDRESS>2190 VICTORIA AVE</ADDRESS>
<NAME>VICTORIA PARK - PLAYGROUND 2190 VICTORIA AVE</NAME>
<LOCATION>VICTORIA PARK</LOCATION>
<TYPE>PLAYGROUND</TYPE>
<LONGITUDE>-104.611673309</LONGITUDE>
<LATITUDE>50.4474602104</LATITUDE>
</POI>
<POI>
<OBJECTID>333</OBJECTID>
<ADDRESS>145 DOROTHY STREET</ADDRESS>
<NAME>DIEPPE SCHOOL - OUTDOOR RINK UNBOARDED</NAME>
<LOCATION>DIEPPE SCHOOL</LOCATION>
<TYPE>OUTDOOR RINK UNBOARDED</TYPE>
<LONGITUDE>-104.681090188</LONGITUDE>
<LATITUDE>50.4588025111</LATITUDE>
</POI>
<POI>
<OBJECTID>334</OBJECTID>
<ADDRESS>145 DOROTHY ST</ADDRESS>
<NAME>DIEPPE SCHOOL W - PLAYGROUND 145 DOROTHY ST</NAME>
<LOCATION>DIEPPE SCHOOL W</LOCATION>
<TYPE>PLAYGROUND</TYPE>
<LONGITUDE>-104.680870179</LONGITUDE>
<LATITUDE>50.4585843229</LATITUDE>
</POI>
<POI>
<OBJECTID>335</OBJECTID>
<ADDRESS>145 DOROTHY STREET</ADDRESS>
<NAME>DIEPPE SCHOOL  - BALL DIAMOND BS #126</NAME>
<LOCATION>DIEPPE SCHOOL</LOCATION>
<TYPE>BALL DIAMOND</TYPE>
<LONGITUDE>-104.681061338</LONGITUDE>
<LATITUDE>50.4587418136</LATITUDE>
</POI>
<POI>
<OBJECTID>336</OBJECTID>
<ADDRESS>145 DOROTHY STREET</ADDRESS>
<NAME>DIEPPE SCHOOL - BASKETBALL</NAME>
<LOCATION>DIEPPE SCHOOL</LOCATION>
<TYPE>BASKETBALL</TYPE>
<LONGITUDE>-104.679616973</LONGITUDE>
<LATITUDE>50.4585232397</LATITUDE>
</POI>
<POI>
<OBJECTID>337</OBJECTID>
<ADDRESS>145 DOROTHY ST</ADDRESS>
<NAME>DIEPPE SCHOOL - OUTDOOR RINK SHELTER</NAME>
<LOCATION>DIEPPE SCHOOL</LOCATION>
<TYPE>OUTDOOR RINK SHELTER</TYPE>
<LONGITUDE>-104.680872496</LONGITUDE>
<LATITUDE>50.4593178352</LATITUDE>
</POI>
<POI>
<OBJECTID>338</OBJECTID>
<ADDRESS>145 DOROTHY ST</ADDRESS>
<NAME>DIEPPE SCHOOL E - PLAYGROUND 145 DOROTHY ST</NAME>
<LOCATION>DIEPPE SCHOOL E</LOCATION>
<TYPE>PLAYGROUND</TYPE>
<LONGITUDE>-104.679349782</LONGITUDE>
<LATITUDE>50.4583807288</LATITUDE>
</POI>
<POI>
<OBJECTID>339</OBJECTID>
<ADDRESS>145 DOROTHY STREET</ADDRESS>
<NAME>DIEPPE SCHOOL - ATHLETIC FIELD SOCCER ATHLETIC FIELD</NAME>
<LOCATION>DIEPPE SCHOOL</LOCATION>
<TYPE>ATHLETIC FIELD</TYPE>
<LONGITUDE>-104.679652366</LONGITUDE>
<LATITUDE>50.4587058359</LATITUDE>
</POI>
<POI>
<OBJECTID>340</OBJECTID>
<ADDRESS>145 Dorothy St.</ADDRESS>
<NAME>Dieppe - Public Elementary School</NAME>
<LOCATION>Dieppe - Public Elementary School</LOCATION>
<TYPE>Public Elementary School</TYPE>
<LONGITUDE>-104.680316237</LONGITUDE>
<LATITUDE>50.4587154871</LATITUDE>
</POI>
<POI>
<OBJECTID>341</OBJECTID>
<ADDRESS>750 N WINNIPEG ST</ADDRESS>
<NAME>MOUNT PLEASANT SPORT PARK - OUTDOOR RINK SHELTER</NAME>
<LOCATION>MOUNT PLEASANT SPORT PARK</LOCATION>
<TYPE>OUTDOOR RINK SHELTER</TYPE>
<LONGITUDE>-104.597285072</LONGITUDE>
<LATITUDE>50.4861084023</LATITUDE>
</POI>
<POI>
<OBJECTID>342</OBJECTID>
<ADDRESS>555 N MONTREAL STREET</ADDRESS>
<NAME>SPEED SKATING OVAL - OUTDOOR RINK OTHER</NAME>
<LOCATION>SPEED SKATING OVAL</LOCATION>
<TYPE>OUTDOOR RINK OTHER</TYPE>
<LONGITUDE>-104.596899679</LONGITUDE>
<LATITUDE>50.4856026103</LATITUDE>
</POI>
<POI>
<OBJECTID>343</OBJECTID>
<ADDRESS>625 Elphinstone St.</ADDRESS>
<NAME>St. Luke - Separate Elementary School</NAME>
<LOCATION>St. Luke - Separate Elementary School</LOCATION>
<TYPE>Separate Elementary School</TYPE>
<LONGITUDE>-104.630386489</LONGITUDE>
<LATITUDE>50.4688794969</LATITUDE>
</POI>
<POI>
<OBJECTID>344</OBJECTID>
<ADDRESS>1314 ELPHINSTONE STREET</ADDRESS>
<NAME>SACRED HEART SCHOOL - BALL DIAMOND</NAME>
<LOCATION>SACRED HEART SCHOOL</LOCATION>
<TYPE>BALL DIAMOND</TYPE>
<LONGITUDE>-104.632359742</LONGITUDE>
<LATITUDE>50.4573795563</LATITUDE>
</POI>
<POI>
<OBJECTID>345</OBJECTID>
<ADDRESS>1314 ELPHINSTONE ST</ADDRESS>
<NAME>SACRED HEART SCHOOL - PLAYGROUND 1314 ELPHINSTONE ST</NAME>
<LOCATION>SACRED HEART SCHOOL</LOCATION>
<TYPE>PLAYGROUND</TYPE>
<LONGITUDE>-104.631403855</LONGITUDE>
<LATITUDE>50.4580653698</LATITUDE>
</POI>
<POI>
<OBJECTID>346</OBJECTID>
<ADDRESS>1314 ELPHINSTONE ST</ADDRESS>
<NAME>SACRED HEART SCHOOL - BASKETBALL</NAME>
<LOCATION>SACRED HEART SCHOOL</LOCATION>
<TYPE>BASKETBALL</TYPE>
<LONGITUDE>-104.631760019</LONGITUDE>
<LATITUDE>50.4580377957</LATITUDE>
</POI>
<POI>
<OBJECTID>347</OBJECTID>
<ADDRESS>1314 ELPHINSTONE STREET</ADDRESS>
<NAME>SACRED HEART SCHOOL - BALL DIAMOND</NAME>
<LOCATION>SACRED HEART SCHOOL</LOCATION>
<TYPE>BALL DIAMOND</TYPE>
<LONGITUDE>-104.632365074</LONGITUDE>
<LATITUDE>50.4581282283</LATITUDE>
</POI>
<POI>
<OBJECTID>348</OBJECTID>
<ADDRESS>1314 Elphinstone St.</ADDRESS>
<NAME>Sacred Heart - Separate Elementary School</NAME>
<LOCATION>Sacred Heart - Separate Elementary School</LOCATION>
<TYPE>Separate Elementary School</TYPE>
<LONGITUDE>-104.631809405</LONGITUDE>
<LATITUDE>50.457515768</LATITUDE>
</POI>
<POI>
<OBJECTID>349</OBJECTID>
<ADDRESS>5560 LEIBEL CRES</ADDRESS>
<NAME>LAKERIDGE PARK S - PLAYGROUND 5560 LEIBEL CRES</NAME>
<LOCATION>LAKERIDGE PARK S</LOCATION>
<TYPE>PLAYGROUND</TYPE>
<LONGITUDE>-104.66073979</LONGITUDE>
<LATITUDE>50.4985972257</LATITUDE>
</POI>
<POI>
<OBJECTID>350</OBJECTID>
<ADDRESS>6530 HIRD CRES</ADDRESS>
<NAME>HIRD PARK - PLAYGROUND 6530 HIRD CRES</NAME>
<LOCATION>HIRD PARK</LOCATION>
<TYPE>PLAYGROUND</TYPE>
<LONGITUDE>-104.673795435</LONGITUDE>
<LATITUDE>50.5042473152</LATITUDE>
</POI>
<POI>
<OBJECTID>351</OBJECTID>
<ADDRESS>1501 BOND ST</ADDRESS>
<NAME>GLEN ELM PARK - OUTDOOR RINK SHELTER</NAME>
<LOCATION>GLEN ELM PARK</LOCATION>
<TYPE>OUTDOOR RINK SHELTER</TYPE>
<LONGITUDE>-104.567155701</LONGITUDE>
<LATITUDE>50.4533366372</LATITUDE>
</POI>
<POI>
<OBJECTID>352</OBJECTID>
<ADDRESS>1501 BOND ST</ADDRESS>
<NAME>GLEN ELM PARK NW - PLAYGROUND 1501 BOND ST</NAME>
<LOCATION>GLEN ELM PARK NW</LOCATION>
<TYPE>PLAYGROUND</TYPE>
<LONGITUDE>-104.567349723</LONGITUDE>
<LATITUDE>50.4532044689</LATITUDE>
</POI>
<POI>
<OBJECTID>353</OBJECTID>
<ADDRESS>1601 BOND STREET</ADDRESS>
<NAME>GLEN ELM PARK - OUTDOOR RINK UNBOARDED</NAME>
<LOCATION>GLEN ELM PARK</LOCATION>
<TYPE>OUTDOOR RINK UNBOARDED</TYPE>
<LONGITUDE>-104.567261736</LONGITUDE>
<LATITUDE>50.4530085189</LATITUDE>
</POI>
<POI>
<OBJECTID>354</OBJECTID>
<ADDRESS>1601 BOND STREET</ADDRESS>
